{"type": "FeatureCollection", "features": [{"type": "Feature", "geometry": {"type": "Point", "coordinates": [10.0933, 48.83777]}, "properties": {"name": "Aalen", "kind": "Ort", "n": 6, "gazId": "2045956", "src": "iDAI"}}, {"type": "Feature", "geometry": {"type": "Point", "coordinates": [16.46667, -26.71667]}, "properties": {"name": "Aar", "kind": "Fluss", "n": 4, "gazId": "2387516", "src": "iDAI"}}, {"type": "Feature", "geometry": {"type": "Point", "coordinates": [11.77116, 48.85009]}, "properties": {"name": "Abusina", "kind": "Ort", "n": 2, "gazId": "2047393", "src": "iDAI"}}, {"type": "Feature", "geometry": {"type": "Point", "coordinates": [9.3925, 49.4015]}, "properties": {"name": "Adelsheim", "kind": "Ort", "n": 1, "gazId": "2045854", "src": "iDAI"}}, {"type": "Feature", "geometry": {"type": "Point", "coordinates": [8.0787, 50.16016]}, "properties": {"name": "Adolfseck", "kind": "Kastell", "n": 2, "gazId": "2049448", "src": "iDAI"}}, {"type": "Feature", "geometry": {"type": "Point", "coordinates": [7.81591, 48.2654]}, "properties": {"name": "Altdorf", "kind": "Ort", "n": 2, "gazId": "2045872", "src": "iDAI"}}, {"type": "Feature", "geometry": {"type": "Point", "coordinates": [8.66649, 49.5872]}, "properties": {"name": "Alteberg", "kind": "Berg", "n": 1, "gazId": "", "src": "OSM"}}, {"type": "Feature", "geometry": {"type": "Point", "coordinates": [6.97944, 50.90417]}, "properties": {"name": "Alteburg", "kind": "Kastell", "n": 7, "gazId": "2110446", "src": "iDAI"}}, {"type": "Feature", "geometry": {"type": "Point", "coordinates": [8.33656, 50.20619]}, "properties": {"name": "Alteburg bei Heftrich", "kind": "Kastell", "n": 7, "gazId": "", "src": "OSM"}}, {"type": "Feature", "geometry": {"type": "Point", "coordinates": [12.43476, 50.98529]}, "properties": {"name": "Altenburg", "kind": "Ort", "n": 1, "gazId": "2052951", "src": "iDAI"}}, {"type": "Feature", "geometry": {"type": "Point", "coordinates": [7.80905, 48.46461]}, "properties": {"name": "Altenheim", "kind": "Ort", "n": 1, "gazId": "", "src": "OSM"}}, {"type": "Feature", "geometry": {"type": "Point", "coordinates": [12.18367, 49.75188]}, "properties": {"name": "Altenstadt", "kind": "Ort", "n": 8, "gazId": "2180670", "src": "iDAI"}}, {"type": "Feature", "geometry": {"type": "Point", "coordinates": [8.19129, 48.80684]}, "properties": {"name": "Altes Jagdhaus", "kind": "Ort", "n": 1, "gazId": "", "src": "OSM"}}, {"type": "Feature", "geometry": {"type": "Point", "coordinates": [8.19129, 48.80684]}, "properties": {"name": "Altes Jagdhaus (Zwischenkastell)", "kind": "Kastell", "n": 1, "gazId": "", "src": "OSM"}}, {"type": "Feature", "geometry": {"type": "Point", "coordinates": [9.44277, 49.52086]}, "properties": {"name": "Altheim", "kind": "Ort", "n": 1, "gazId": "2045870", "src": "iDAI"}}, {"type": "Feature", "geometry": {"type": "Point", "coordinates": [8.48239, 50.21248]}, "properties": {"name": "Altkönig", "kind": "Berg", "n": 1, "gazId": "2049246", "src": "iDAI"}}, {"type": "Feature", "geometry": {"type": "Point", "coordinates": [11.9, 48.9]}, "properties": {"name": "Altmühl", "kind": "Fluss", "n": 13, "gazId": "2046559", "src": "iDAI"}}, {"type": "Feature", "geometry": {"type": "Point", "coordinates": [13.46383, 48.57468]}, "properties": {"name": "Altstadt (Miltenberg)", "kind": "Flur", "n": 3, "gazId": "2047848", "src": "iDAI"}}, {"type": "Feature", "geometry": {"type": "Point", "coordinates": [10.46703, 49.09649]}, "properties": {"name": "Ammelbruch", "kind": "Ort", "n": 2, "gazId": "", "src": "OSM"}}, {"type": "Feature", "geometry": {"type": "Point", "coordinates": [7.55335, 50.4969]}, "properties": {"name": "Anhausen", "kind": "Ort", "n": 2, "gazId": "2052509", "src": "iDAI"}}, {"type": "Feature", "geometry": {"type": "Point", "coordinates": [11.2306, 48.99773]}, "properties": {"name": "Anlauter", "kind": "Fluss", "n": 2, "gazId": "", "src": "OSM"}}, {"type": "Feature", "geometry": {"type": "Point", "coordinates": [13.00257, 50.57975]}, "properties": {"name": "Annaberg", "kind": "Berg", "n": 1, "gazId": "2133297", "src": "iDAI"}}, {"type": "Feature", "geometry": {"type": "Point", "coordinates": [10.5931, 49.30481]}, "properties": {"name": "Ansbach", "kind": "Ort", "n": 1, "gazId": "2046755", "src": "iDAI"}}, {"type": "Feature", "geometry": {"type": "Point", "coordinates": [10.33333, 36.86667]}, "properties": {"name": "Antoninus Pius", "kind": "Region", "n": 1, "gazId": "2090143", "src": "iDAI"}}, {"type": "Feature", "geometry": {"type": "Point", "coordinates": [45.0, 40.25]}, "properties": {"name": "Armenien", "kind": "Region", "n": 1, "gazId": "2043307", "src": "iDAI"}}, {"type": "Feature", "geometry": {"type": "Point", "coordinates": [8.79138, 50.49401]}, "properties": {"name": "Arnsburg", "kind": "Ort", "n": 5, "gazId": "2049188", "src": "iDAI"}}, {"type": "Feature", "geometry": {"type": "Point", "coordinates": [7.74744, 50.37875]}, "properties": {"name": "Arzbach", "kind": "Fluss", "n": 1, "gazId": "2052018", "src": "iDAI"}}, {"type": "Feature", "geometry": {"type": "Point", "coordinates": [9.14832, 49.97671]}, "properties": {"name": "Aschaffenburg", "kind": "Ort", "n": 2, "gazId": "2046780", "src": "iDAI"}}, {"type": "Feature", "geometry": {"type": "Point", "coordinates": [11.56383, 48.11346]}, "properties": {"name": "Aubach", "kind": "Fluss", "n": 1, "gazId": "", "src": "OSM"}}, {"type": "Feature", "geometry": {"type": "Point", "coordinates": [11.36383, 47.95595]}, "properties": {"name": "Aufkirchen", "kind": "Ort", "n": 1, "gazId": "", "src": "OSM"}}, {"type": "Feature", "geometry": {"type": "Point", "coordinates": [7.72605, 47.53966]}, "properties": {"name": "Augusta Rauricorum", "kind": "Ort", "n": 1, "gazId": "2109094", "src": "iDAI"}}, {"type": "Feature", "geometry": {"type": "Point", "coordinates": [9.19302, 49.27933]}, "properties": {"name": "Bachenau", "kind": "Ort", "n": 1, "gazId": "", "src": "OSM"}}, {"type": "Feature", "geometry": {"type": "Point", "coordinates": [9.43718, 48.94744]}, "properties": {"name": "Backnang", "kind": "Ort", "n": 2, "gazId": "2046032", "src": "iDAI"}}, {"type": "Feature", "geometry": {"type": "Point", "coordinates": [8.23975, 48.7606]}, "properties": {"name": "Baden", "kind": "Region", "n": 3, "gazId": "2045408", "src": "iDAI"}}, {"type": "Feature", "geometry": {"type": "Point", "coordinates": [7.70444, 47.50438]}, "properties": {"name": "Basel", "kind": "Ort", "n": 1, "gazId": "2057868", "src": "iDAI"}}, {"type": "Feature", "geometry": {"type": "Point", "coordinates": [13.11562, 48.41929]}, "properties": {"name": "Bayerbach", "kind": "Ort", "n": 1, "gazId": "2048094", "src": "iDAI"}}, {"type": "Feature", "geometry": {"type": "Point", "coordinates": [11.5, 49.0]}, "properties": {"name": "Bayern", "kind": "Region", "n": 3, "gazId": "2046350", "src": "iDAI"}}, {"type": "Feature", "geometry": {"type": "Point", "coordinates": [7.82694, 50.22765]}, "properties": {"name": "Bechermühle", "kind": "Ort", "n": 1, "gazId": "", "src": "OSM"}}, {"type": "Feature", "geometry": {"type": "Point", "coordinates": [10.52418, 49.18167]}, "properties": {"name": "Bechhofen", "kind": "Ort", "n": 1, "gazId": "2046758", "src": "iDAI"}}, {"type": "Feature", "geometry": {"type": "Point", "coordinates": [8.34758, 47.60295]}, "properties": {"name": "Bechtersbohl", "kind": "Ort", "n": 1, "gazId": "", "src": "OSM"}}, {"type": "Feature", "geometry": {"type": "Point", "coordinates": [8.83906, 50.45116]}, "properties": {"name": "Bellersheim", "kind": "Ort", "n": 1, "gazId": "", "src": "OSM"}}, {"type": "Feature", "geometry": {"type": "Point", "coordinates": [7.57564, 50.42338]}, "properties": {"name": "Bendorf", "kind": "Ort", "n": 4, "gazId": "2119169", "src": "iDAI"}}, {"type": "Feature", "geometry": {"type": "Point", "coordinates": [9.24212, 48.94672]}, "properties": {"name": "Benningen", "kind": "Kastell", "n": 1, "gazId": "2045774", "src": "iDAI"}}, {"type": "Feature", "geometry": {"type": "Point", "coordinates": [8.7529, 50.15513]}, "properties": {"name": "Bergen", "kind": "Ort", "n": 6, "gazId": "2181133", "src": "iDAI"}}, {"type": "Feature", "geometry": {"type": "Point", "coordinates": [9.48695, 49.327]}, "properties": {"name": "Berlichingen", "kind": "Ort", "n": 1, "gazId": "", "src": "OSM"}}, {"type": "Feature", "geometry": {"type": "Point", "coordinates": [13.41053, 52.52437]}, "properties": {"name": "Berlin", "kind": "Ort", "n": 1, "gazId": "2282601", "src": "iDAI"}}, {"type": "Feature", "geometry": {"type": "Point", "coordinates": [9.20438, 49.01745]}, "properties": {"name": "Besigheim", "kind": "Ort", "n": 1, "gazId": "2045751", "src": "iDAI"}}, {"type": "Feature", "geometry": {"type": "Point", "coordinates": [10.76191, 48.3752]}, "properties": {"name": "Biburg", "kind": "Kastell", "n": 1, "gazId": "2734425", "src": "iDAI"}}, {"type": "Feature", "geometry": {"type": "Point", "coordinates": [8.27685, 50.08504]}, "properties": {"name": "Bierstadt", "kind": "Ort", "n": 1, "gazId": "2181111", "src": "iDAI"}}, {"type": "Feature", "geometry": {"type": "Point", "coordinates": [9.11755, 48.94407]}, "properties": {"name": "Bietigheim", "kind": "Ort", "n": 1, "gazId": "2045985", "src": "iDAI"}}, {"type": "Feature", "geometry": {"type": "Point", "coordinates": [10.27309, 48.99045]}, "properties": {"name": "Birkenzell", "kind": "Ort", "n": 1, "gazId": "", "src": "OSM"}}, {"type": "Feature", "geometry": {"type": "Point", "coordinates": [6.52734, 49.96794]}, "properties": {"name": "Bitburg", "kind": "Ort", "n": 1, "gazId": "2052328", "src": "iDAI"}}, {"type": "Feature", "geometry": {"type": "Point", "coordinates": [8.53783, 50.24667]}, "properties": {"name": "Bleibeskopf", "kind": "Berg", "n": 1, "gazId": "2049247", "src": "iDAI"}}, {"type": "Feature", "geometry": {"type": "Point", "coordinates": [8.18378, 49.60622]}, "properties": {"name": "Bockenheim", "kind": "Ort", "n": 1, "gazId": "2052227", "src": "iDAI"}}, {"type": "Feature", "geometry": {"type": "Point", "coordinates": [8.97098, 47.74194]}, "properties": {"name": "Bodensee", "kind": "Region", "n": 1, "gazId": "2134700", "src": "iDAI"}}, {"type": "Feature", "geometry": {"type": "Point", "coordinates": [9.41064, 49.47228]}, "properties": {"name": "Bofsheim", "kind": "Ort", "n": 6, "gazId": "", "src": "OSM"}}, {"type": "Feature", "geometry": {"type": "Point", "coordinates": [7.80137, 50.19115]}, "properties": {"name": "Bogel", "kind": "Ort", "n": 2, "gazId": "", "src": "OSM"}}, {"type": "Feature", "geometry": {"type": "Point", "coordinates": [8.66448, 50.18165]}, "properties": {"name": "Bonames", "kind": "Ort", "n": 2, "gazId": "2181134", "src": "iDAI"}}, {"type": "Feature", "geometry": {"type": "Point", "coordinates": [7.09651, 50.73707]}, "properties": {"name": "Bonn", "kind": "Ort", "n": 3, "gazId": "2051380", "src": "iDAI"}}, {"type": "Feature", "geometry": {"type": "Point", "coordinates": [10.35416, 48.85848]}, "properties": {"name": "Bopfingen", "kind": "Ort", "n": 1, "gazId": "2176829", "src": "iDAI"}}, {"type": "Feature", "geometry": {"type": "Point", "coordinates": [7.76592, 50.12701]}, "properties": {"name": "Bornich", "kind": "Ort", "n": 1, "gazId": "", "src": "OSM"}}, {"type": "Feature", "geometry": {"type": "Point", "coordinates": [7.64557, 50.2735]}, "properties": {"name": "Braubach", "kind": "Ort", "n": 1, "gazId": "2278698", "src": "iDAI"}}, {"type": "Feature", "geometry": {"type": "Point", "coordinates": [9.8507, 48.95198]}, "properties": {"name": "Braunhof", "kind": "Ort", "n": 1, "gazId": "", "src": "OSM"}}, {"type": "Feature", "geometry": {"type": "Point", "coordinates": [9.78276, 50.95644]}, "properties": {"name": "Breitenbach", "kind": "Ort", "n": 1, "gazId": "2049222", "src": "iDAI"}}, {"type": "Feature", "geometry": {"type": "Point", "coordinates": [11.66654, 53.38398]}, "properties": {"name": "Brenz", "kind": "Fluss", "n": 1, "gazId": "2049874", "src": "iDAI"}}, {"type": "Feature", "geometry": {"type": "Point", "coordinates": [9.45825, 49.15759]}, "properties": {"name": "Brettach", "kind": "Fluss", "n": 1, "gazId": "", "src": "OSM"}}, {"type": "Feature", "geometry": {"type": "Point", "coordinates": [8.79505, 50.30093]}, "properties": {"name": "Bruchenbrücken", "kind": "Ort", "n": 2, "gazId": "2049535", "src": "iDAI"}}, {"type": "Feature", "geometry": {"type": "Point", "coordinates": [8.66833, 50.02183]}, "properties": {"name": "Buchschlag", "kind": "Flur/Waldabteilung", "n": 1, "gazId": "", "src": "OSM"}}, {"type": "Feature", "geometry": {"type": "Point", "coordinates": [27.00326, 31.42705]}, "properties": {"name": "Bulau", "kind": "Wald", "n": 5, "gazId": "2276507", "src": "iDAI"}}, {"type": "Feature", "geometry": {"type": "Point", "coordinates": [8.1105, 51.56837]}, "properties": {"name": "Burghof", "kind": "Flur", "n": 2, "gazId": "2120416", "src": "iDAI"}}, {"type": "Feature", "geometry": {"type": "Point", "coordinates": [11.09766, 49.03316]}, "properties": {"name": "Burgsalach", "kind": "Ort", "n": 2, "gazId": "2048343", "src": "iDAI"}}, {"type": "Feature", "geometry": {"type": "Point", "coordinates": [12.89095, 49.24909]}, "properties": {"name": "Burgstall", "kind": "Flur", "n": 2, "gazId": "2046934", "src": "iDAI"}}, {"type": "Feature", "geometry": {"type": "Point", "coordinates": [8.81242, 51.02783]}, "properties": {"name": "Burgwald", "kind": "Wald", "n": 1, "gazId": "2049493", "src": "iDAI"}}, {"type": "Feature", "geometry": {"type": "Point", "coordinates": [8.67358, 50.43303]}, "properties": {"name": "Butzbach", "kind": "Ort", "n": 23, "gazId": "2087816", "src": "iDAI"}}, {"type": "Feature", "geometry": {"type": "Point", "coordinates": [9.19349, 49.13682]}, "properties": {"name": "Böckingen", "kind": "Ort", "n": 3, "gazId": "2122610", "src": "iDAI"}}, {"type": "Feature", "geometry": {"type": "Point", "coordinates": [8.89527, 47.71921]}, "properties": {"name": "Böhlingen", "kind": "Ort", "n": 1, "gazId": "", "src": "OSM"}}, {"type": "Feature", "geometry": {"type": "Point", "coordinates": [11.36673, 48.94551]}, "properties": {"name": "Böhming", "kind": "Kastell", "n": 5, "gazId": "2047147", "src": "iDAI"}}, {"type": "Feature", "geometry": {"type": "Point", "coordinates": [9.26853, 50.75252]}, "properties": {"name": "Bücking", "kind": "Ort", "n": 1, "gazId": "", "src": "OSM"}}, {"type": "Feature", "geometry": {"type": "Point", "coordinates": [8.83255, 50.21396]}, "properties": {"name": "Büdesheim", "kind": "Ort", "n": 6, "gazId": "2049329", "src": "iDAI"}}, {"type": "Feature", "geometry": {"type": "Point", "coordinates": [10.41482, 48.50518]}, "properties": {"name": "Bürgle", "kind": "Flur", "n": 1, "gazId": "2047356", "src": "iDAI"}}, {"type": "Feature", "geometry": {"type": "Point", "coordinates": [7.5909, 50.35556]}, "properties": {"name": "Cadenbach", "kind": "Fluss", "n": 1, "gazId": "", "src": "OSM"}}, {"type": "Feature", "geometry": {"type": "Point", "coordinates": [9.2145, 48.8048]}, "properties": {"name": "Cannstatt", "kind": "Ort", "n": 7, "gazId": "2114865", "src": "iDAI"}}, {"type": "Feature", "geometry": {"type": "Point", "coordinates": [8.30737, 51.68183]}, "properties": {"name": "Cappel", "kind": "Ort", "n": 1, "gazId": "2051880", "src": "iDAI"}}, {"type": "Feature", "geometry": {"type": "Point", "coordinates": [9.51345, 49.19664]}, "properties": {"name": "Cappelrain", "kind": "Berg", "n": 1, "gazId": "", "src": "OSM"}}, {"type": "Feature", "geometry": {"type": "Point", "coordinates": [9.4916, 51.31192]}, "properties": {"name": "Cassel", "kind": "Ort", "n": 1, "gazId": "2179801", "src": "iDAI"}}, {"type": "Feature", "geometry": {"type": "Point", "coordinates": [11.97717, 42.70697]}, "properties": {"name": "Castel", "kind": "Ort", "n": 1, "gazId": "2743801", "src": "iDAI"}}, {"type": "Feature", "geometry": {"type": "Point", "coordinates": [7.58928, 50.3567]}, "properties": {"name": "Coblenz", "kind": "Ort", "n": 1, "gazId": "2052381", "src": "iDAI"}}, {"type": "Feature", "geometry": {"type": "Point", "coordinates": [9.18576, 49.22973]}, "properties": {"name": "Cornelienkirche", "kind": "Ort", "n": 1, "gazId": "", "src": "OSM"}}, {"type": "Feature", "geometry": {"type": "Point", "coordinates": [8.51693, 50.18325]}, "properties": {"name": "Cronberg", "kind": "Ort", "n": 1, "gazId": "2049252", "src": "iDAI"}}, {"type": "Feature", "geometry": {"type": "Point", "coordinates": [7.72646, 50.25439]}, "properties": {"name": "Dachsenhausen", "kind": "Ort", "n": 1, "gazId": "", "src": "OSM"}}, {"type": "Feature", "geometry": {"type": "Point", "coordinates": [7.69468, 50.21028]}, "properties": {"name": "Dahlheim", "kind": "Ort", "n": 1, "gazId": "", "src": "OSM"}}, {"type": "Feature", "geometry": {"type": "Point", "coordinates": [10.16926, 48.92168]}, "properties": {"name": "Dalkingen", "kind": "Ort", "n": 2, "gazId": "2122256", "src": "iDAI"}}, {"type": "Feature", "geometry": {"type": "Point", "coordinates": [9.1906, 49.38553]}, "properties": {"name": "Dallau", "kind": "Ort", "n": 1, "gazId": "2045858", "src": "iDAI"}}, {"type": "Feature", "geometry": {"type": "Point", "coordinates": [10.56739, 49.09372]}, "properties": {"name": "Dambach", "kind": "Ort", "n": 11, "gazId": "2046761", "src": "iDAI"}}, {"type": "Feature", "geometry": {"type": "Point", "coordinates": [8.3175, 49.425]}, "properties": {"name": "Dannstadt", "kind": "Ort", "n": 1, "gazId": "2052037", "src": "iDAI"}}, {"type": "Feature", "geometry": {"type": "Point", "coordinates": [8.75667, 49.85639]}, "properties": {"name": "Darmstadt", "kind": "Ort", "n": 15, "gazId": "2049010", "src": "iDAI"}}, {"type": "Feature", "geometry": {"type": "Point", "coordinates": [8.29255, 50.19758]}, "properties": {"name": "Dasbach", "kind": "Ort", "n": 2, "gazId": "2279446", "src": "iDAI"}}, {"type": "Feature", "geometry": {"type": "Point", "coordinates": [9.43088, 48.88831]}, "properties": {"name": "Degenhof", "kind": "Ort", "n": 1, "gazId": "", "src": "OSM"}}, {"type": "Feature", "geometry": {"type": "Point", "coordinates": [10.35355, 48.80652]}, "properties": {"name": "Dehlingen", "kind": "Ort", "n": 1, "gazId": "", "src": "OSM"}}, {"type": "Feature", "geometry": {"type": "Point", "coordinates": [9.31707, 48.69568]}, "properties": {"name": "Denkendorf", "kind": "Ort", "n": 1, "gazId": "", "src": "OSM"}}, {"type": "Feature", "geometry": {"type": "Point", "coordinates": [10.60848, 49.09647]}, "properties": {"name": "Dennenlohe", "kind": "Ort", "n": 3, "gazId": "", "src": "OSM"}}, {"type": "Feature", "geometry": {"type": "Point", "coordinates": [11.00682, 49.40215]}, "properties": {"name": "Deutenbach", "kind": "Fluss", "n": 1, "gazId": "", "src": "OSM"}}, {"type": "Feature", "geometry": {"type": "Point", "coordinates": [8.75667, 49.85639]}, "properties": {"name": "Dieburg", "kind": "Ort", "n": 1, "gazId": "2049010", "src": "iDAI"}}, {"type": "Feature", "geometry": {"type": "Point", "coordinates": [8.41792, 50.06088]}, "properties": {"name": "Diedenbergen", "kind": "Ort", "n": 1, "gazId": "2049378", "src": "iDAI"}}, {"type": "Feature", "geometry": {"type": "Point", "coordinates": [7.52192, 50.47666]}, "properties": {"name": "Dierdorfer Strasse", "kind": "Ort", "n": 1, "gazId": "", "src": "OSM"}}, {"type": "Feature", "geometry": {"type": "Point", "coordinates": [10.31985, 49.06942]}, "properties": {"name": "Dinkelsbühl", "kind": "Ort", "n": 1, "gazId": "2046764", "src": "iDAI"}}, {"type": "Feature", "geometry": {"type": "Point", "coordinates": [10.53958, 48.59619]}, "properties": {"name": "Donau", "kind": "Fluss", "n": 18, "gazId": "2047039", "src": "iDAI"}}, {"type": "Feature", "geometry": {"type": "Point", "coordinates": [8.75721, 50.50172]}, "properties": {"name": "Dorf-Güll", "kind": "Ort", "n": 1, "gazId": "", "src": "OSM"}}, {"type": "Feature", "geometry": {"type": "Point", "coordinates": [10.90824, 49.09486]}, "properties": {"name": "Dorsbrunn", "kind": "Ort", "n": 2, "gazId": "", "src": "OSM"}}, {"type": "Feature", "geometry": {"type": "Point", "coordinates": [8.74726, 50.20866]}, "properties": {"name": "Dortelweil", "kind": "Ort", "n": 1, "gazId": "", "src": "OSM"}}, {"type": "Feature", "geometry": {"type": "Point", "coordinates": [8.47021, 48.99944]}, "properties": {"name": "Durlach", "kind": "Ort", "n": 1, "gazId": "", "src": "OSM"}}, {"type": "Feature", "geometry": {"type": "Point", "coordinates": [9.19484, 49.25067]}, "properties": {"name": "Duttenberg", "kind": "Ort", "n": 1, "gazId": "", "src": "OSM"}}, {"type": "Feature", "geometry": {"type": "Point", "coordinates": [8.83932, 50.13342]}, "properties": {"name": "Dörnigheim", "kind": "Ort", "n": 1, "gazId": "", "src": "OSM"}}, {"type": "Feature", "geometry": {"type": "Point", "coordinates": [7.75766, 50.10529]}, "properties": {"name": "Dörscheid", "kind": "Ort", "n": 1, "gazId": "", "src": "OSM"}}, {"type": "Feature", "geometry": {"type": "Point", "coordinates": [8.83636, 49.24377]}, "properties": {"name": "Dühren", "kind": "Ort", "n": 3, "gazId": "2046083", "src": "iDAI"}}, {"type": "Feature", "geometry": {"type": "Point", "coordinates": [8.61382, 47.96779]}, "properties": {"name": "Dürrheim", "kind": "Ort", "n": 1, "gazId": "2045255", "src": "iDAI"}}, {"type": "Feature", "geometry": {"type": "Point", "coordinates": [9.32053, 49.1808]}, "properties": {"name": "Eberstadt", "kind": "Ort", "n": 1, "gazId": "", "src": "OSM"}}, {"type": "Feature", "geometry": {"type": "Point", "coordinates": [8.88511, 50.38967]}, "properties": {"name": "Echzell", "kind": "Ort", "n": 10, "gazId": "2049562", "src": "iDAI"}}, {"type": "Feature", "geometry": {"type": "Point", "coordinates": [8.67975, 50.15171]}, "properties": {"name": "Eckenheim", "kind": "Ort", "n": 1, "gazId": "", "src": "OSM"}}, {"type": "Feature", "geometry": {"type": "Point", "coordinates": [9.42681, 49.17423]}, "properties": {"name": "Edelmannshof", "kind": "Ort", "n": 1, "gazId": "", "src": "OSM"}}, {"type": "Feature", "geometry": {"type": "Point", "coordinates": [9.72749, 48.28259]}, "properties": {"name": "Ehingen", "kind": "Ort", "n": 2, "gazId": "2045383", "src": "iDAI"}}, {"type": "Feature", "geometry": {"type": "Point", "coordinates": [10.55986, 49.11206]}, "properties": {"name": "Ehrenschwinden", "kind": "Ort", "n": 1, "gazId": "", "src": "OSM"}}, {"type": "Feature", "geometry": {"type": "Point", "coordinates": [11.33877, 50.30634]}, "properties": {"name": "Eichelberg", "kind": "Berg", "n": 1, "gazId": "", "src": "OSM"}}, {"type": "Feature", "geometry": {"type": "Point", "coordinates": [6.9909, 50.80182]}, "properties": {"name": "Eichholz", "kind": "Wald", "n": 1, "gazId": "2051236", "src": "iDAI"}}, {"type": "Feature", "geometry": {"type": "Point", "coordinates": [7.88606, 47.95601]}, "properties": {"name": "Eichkopf", "kind": "Berg", "n": 1, "gazId": "", "src": "OSM"}}, {"type": "Feature", "geometry": {"type": "Point", "coordinates": [11.36042, 49.03339]}, "properties": {"name": "Eichstädt", "kind": "Ort", "n": 3, "gazId": "", "src": "OSM"}}, {"type": "Feature", "geometry": {"type": "Point", "coordinates": [11.17165, 48.89745]}, "properties": {"name": "Eichstätt", "kind": "Ort", "n": 2, "gazId": "2047174", "src": "iDAI"}}, {"type": "Feature", "geometry": {"type": "Point", "coordinates": [11.77649, 48.85957]}, "properties": {"name": "Eining", "kind": "Ort", "n": 4, "gazId": "2121593", "src": "iDAI"}}, {"type": "Feature", "geometry": {"type": "Point", "coordinates": [9.13513, 48.55596]}, "properties": {"name": "Einsiedel", "kind": "Flur", "n": 1, "gazId": "2046266", "src": "iDAI"}}, {"type": "Feature", "geometry": {"type": "Point", "coordinates": [8.27105, 47.96244]}, "properties": {"name": "Eisenbach", "kind": "Ort", "n": 2, "gazId": "", "src": "OSM"}}, {"type": "Feature", "geometry": {"type": "Point", "coordinates": [7.14816, 51.25627]}, "properties": {"name": "Elberfeld", "kind": "Ort", "n": 1, "gazId": "2052004", "src": "iDAI"}}, {"type": "Feature", "geometry": {"type": "Point", "coordinates": [7.94699, 48.4403]}, "properties": {"name": "Elgersweier", "kind": "Ort", "n": 1, "gazId": "", "src": "OSM"}}, {"type": "Feature", "geometry": {"type": "Point", "coordinates": [8.68786, 50.106]}, "properties": {"name": "Elisabethenstraße", "kind": "Ort", "n": 5, "gazId": "", "src": "OSM"}}, {"type": "Feature", "geometry": {"type": "Point", "coordinates": [10.96783, 49.06076]}, "properties": {"name": "Ellingen", "kind": "Ort", "n": 3, "gazId": "2048346", "src": "iDAI"}}, {"type": "Feature", "geometry": {"type": "Point", "coordinates": [10.25639, 48.96486]}, "properties": {"name": "Ellwangen", "kind": "Ort", "n": 2, "gazId": "2045934", "src": "iDAI"}}, {"type": "Feature", "geometry": {"type": "Point", "coordinates": [8.03333, 50.41667]}, "properties": {"name": "Elz", "kind": "Fluss", "n": 2, "gazId": "1001813", "src": "iDAI"}}, {"type": "Feature", "geometry": {"type": "Point", "coordinates": [9.1906, 49.38553]}, "properties": {"name": "Elztal", "kind": "Flur", "n": 1, "gazId": "2045858", "src": "iDAI"}}, {"type": "Feature", "geometry": {"type": "Point", "coordinates": [7.71347, 50.33361]}, "properties": {"name": "Ems", "kind": "Ort", "n": 4, "gazId": "2052026", "src": "iDAI"}}, {"type": "Feature", "geometry": {"type": "Point", "coordinates": [11.26343, 48.99801]}, "properties": {"name": "Emsing", "kind": "Ort", "n": 1, "gazId": "", "src": "OSM"}}, {"type": "Feature", "geometry": {"type": "Point", "coordinates": [7.54439, 50.42443]}, "properties": {"name": "Engers", "kind": "Ort", "n": 2, "gazId": "2052511", "src": "iDAI"}}, {"type": "Feature", "geometry": {"type": "Point", "coordinates": [11.36312, 48.9925]}, "properties": {"name": "Enkering", "kind": "Ort", "n": 1, "gazId": "2047180", "src": "iDAI"}}, {"type": "Feature", "geometry": {"type": "Point", "coordinates": [8.91229, 49.13644]}, "properties": {"name": "Eppingen", "kind": "Ort", "n": 1, "gazId": "2045672", "src": "iDAI"}}, {"type": "Feature", "geometry": {"type": "Point", "coordinates": [8.33235, 49.50708]}, "properties": {"name": "Eppstein", "kind": "Ort", "n": 1, "gazId": "2052351", "src": "iDAI"}}, {"type": "Feature", "geometry": {"type": "Point", "coordinates": [8.99522, 49.65831]}, "properties": {"name": "Erbach (Erbal, Erf.)", "kind": "Fluss", "n": 1, "gazId": "2088884", "src": "iDAI"}}, {"type": "Feature", "geometry": {"type": "Point", "coordinates": [8.86345, 50.27062]}, "properties": {"name": "Erbstadt", "kind": "Ort", "n": 3, "gazId": "", "src": "OSM"}}, {"type": "Feature", "geometry": {"type": "Point", "coordinates": [8.67821, 50.22579]}, "properties": {"name": "Erlenbach", "kind": "Ort/Tal", "n": 3, "gazId": "2049255", "src": "iDAI"}}, {"type": "Feature", "geometry": {"type": "Point", "coordinates": [9.71784, 49.00807]}, "properties": {"name": "Erlenhof", "kind": "Ort", "n": 2, "gazId": "2088906", "src": "iDAI"}}, {"type": "Feature", "geometry": {"type": "Point", "coordinates": [9.51364, 49.2924]}, "properties": {"name": "Ernsbach", "kind": "Fluss", "n": 4, "gazId": "", "src": "OSM"}}, {"type": "Feature", "geometry": {"type": "Point", "coordinates": [8.56605, 50.14177]}, "properties": {"name": "Eschborn", "kind": "Ort", "n": 1, "gazId": "2123684", "src": "iDAI"}}, {"type": "Feature", "geometry": {"type": "Point", "coordinates": [8.6577, 50.15604]}, "properties": {"name": "Eschersheim", "kind": "Ort", "n": 4, "gazId": "2181155", "src": "iDAI"}}, {"type": "Feature", "geometry": {"type": "Point", "coordinates": [9.07639, 49.67806]}, "properties": {"name": "Eulbach", "kind": "Ort", "n": 3, "gazId": "2122377", "src": "iDAI"}}, {"type": "Feature", "geometry": {"type": "Point", "coordinates": [9.06502, 49.62002]}, "properties": {"name": "Euterbach", "kind": "Fluss", "n": 1, "gazId": "", "src": "OSM"}}, {"type": "Feature", "geometry": {"type": "Point", "coordinates": [9.15056, 49.43139]}, "properties": {"name": "Fahrenbach", "kind": "Ort", "n": 1, "gazId": "2276388", "src": "iDAI"}}, {"type": "Feature", "geometry": {"type": "Point", "coordinates": [10.41006, 48.56156]}, "properties": {"name": "Faimingen", "kind": "Ort", "n": 2, "gazId": "2122306", "src": "iDAI"}}, {"type": "Feature", "geometry": {"type": "Point", "coordinates": [7.58422, 49.22844]}, "properties": {"name": "Fehrbach", "kind": "Ort", "n": 1, "gazId": "", "src": "OSM"}}, {"type": "Feature", "geometry": {"type": "Point", "coordinates": [11.02511, 49.06972]}, "properties": {"name": "Felchbach", "kind": "Fluss", "n": 3, "gazId": "", "src": "OSM"}}, {"type": "Feature", "geometry": {"type": "Point", "coordinates": [13.43346, 53.33065]}, "properties": {"name": "Feldberg", "kind": "Berg", "n": 16, "gazId": "2049948", "src": "iDAI"}}, {"type": "Feature", "geometry": {"type": "Point", "coordinates": [8.44466, 50.22713]}, "properties": {"name": "Feldberg-Kastell", "kind": "Kastell", "n": 1, "gazId": "", "src": "OSM"}}, {"type": "Feature", "geometry": {"type": "Point", "coordinates": [7.66907, 50.43315]}, "properties": {"name": "Ferbach", "kind": "Fluss", "n": 3, "gazId": "", "src": "OSM"}}, {"type": "Feature", "geometry": {"type": "Point", "coordinates": [10.33133, 49.16786]}, "properties": {"name": "Feuchtwangen", "kind": "Ort", "n": 1, "gazId": "", "src": "OSM"}}, {"type": "Feature", "geometry": {"type": "Point", "coordinates": [11.02229, 49.07454]}, "properties": {"name": "Fiegenstall", "kind": "Ort", "n": 3, "gazId": "2048320", "src": "iDAI"}}, {"type": "Feature", "geometry": {"type": "Point", "coordinates": [8.4925, 48.15296]}, "properties": {"name": "Fischbach", "kind": "Ort", "n": 1, "gazId": "2111467", "src": "iDAI"}}, {"type": "Feature", "geometry": {"type": "Point", "coordinates": [8.8613, 50.31539]}, "properties": {"name": "Florstadt", "kind": "Ort", "n": 3, "gazId": "2180686", "src": "iDAI"}}, {"type": "Feature", "geometry": {"type": "Point", "coordinates": [8.90501, 50.32009]}, "properties": {"name": "Florstädt", "kind": "Ort", "n": 1, "gazId": "", "src": "OSM"}}, {"type": "Feature", "geometry": {"type": "Point", "coordinates": [8.43007, 50.0137]}, "properties": {"name": "Flörsheim", "kind": "Ort", "n": 2, "gazId": "2138121", "src": "iDAI"}}, {"type": "Feature", "geometry": {"type": "Point", "coordinates": [11.32962, 49.82543]}, "properties": {"name": "Frankenjura", "kind": "Region", "n": 1, "gazId": "", "src": "OSM"}}, {"type": "Feature", "geometry": {"type": "Point", "coordinates": [14.55062, 52.34714]}, "properties": {"name": "Frankfurt", "kind": "Ort", "n": 16, "gazId": "2287566", "src": "iDAI"}}, {"type": "Feature", "geometry": {"type": "Point", "coordinates": [8.67666, 50.1142]}, "properties": {"name": "Frankfurt a. M.", "kind": "Ort", "n": 5, "gazId": "2089310", "src": "iDAI"}}, {"type": "Feature", "geometry": {"type": "Point", "coordinates": [8.67666, 50.1142]}, "properties": {"name": "Frankfurt am Main", "kind": "Ort", "n": 14, "gazId": "2089310", "src": "iDAI"}}, {"type": "Feature", "geometry": {"type": "Point", "coordinates": [7.85222, 47.9959]}, "properties": {"name": "Freiburg im Breisgau", "kind": "Ort", "n": 3, "gazId": "2045617", "src": "iDAI"}}, {"type": "Feature", "geometry": {"type": "Point", "coordinates": [8.83925, 50.67915]}, "properties": {"name": "Freymühle", "kind": "Kastell", "n": 3, "gazId": "", "src": "OSM"}}, {"type": "Feature", "geometry": {"type": "Point", "coordinates": [8.75239, 50.33402]}, "properties": {"name": "Friedberg", "kind": "Ort", "n": 21, "gazId": "2106473", "src": "iDAI"}}, {"type": "Feature", "geometry": {"type": "Point", "coordinates": [11.78558, 53.53134]}, "properties": {"name": "Friedrichsruhe", "kind": "Ort", "n": 3, "gazId": "2050130", "src": "iDAI"}}, {"type": "Feature", "geometry": {"type": "Point", "coordinates": [11.16065, 48.45073]}, "properties": {"name": "Fuchsberg", "kind": "Berg", "n": 1, "gazId": "", "src": "OSM"}}, {"type": "Feature", "geometry": {"type": "Point", "coordinates": [9.67886, 50.55165]}, "properties": {"name": "Fulda", "kind": "Ort", "n": 1, "gazId": "2049146", "src": "iDAI"}}, {"type": "Feature", "geometry": {"type": "Point", "coordinates": [8.53042, 47.80763]}, "properties": {"name": "Fützen", "kind": "Ort", "n": 1, "gazId": "", "src": "OSM"}}, {"type": "Feature", "geometry": {"type": "Point", "coordinates": [9.55783, 49.09248]}, "properties": {"name": "Gailsbach", "kind": "Ort", "n": 2, "gazId": "", "src": "OSM"}}, {"type": "Feature", "geometry": {"type": "Point", "coordinates": [8.31342, 50.66336]}, "properties": {"name": "Galgenkopf", "kind": "Berg", "n": 1, "gazId": "", "src": "OSM"}}, {"type": "Feature", "geometry": {"type": "Point", "coordinates": [8.74958, 50.53814]}, "properties": {"name": "Garbenteich", "kind": "Ort", "n": 1, "gazId": "", "src": "OSM"}}, {"type": "Feature", "geometry": {"type": "Point", "coordinates": [8.64285, 50.33906]}, "properties": {"name": "Gaulskopf", "kind": "Berg", "n": 3, "gazId": "", "src": "OSM"}}, {"type": "Feature", "geometry": {"type": "Point", "coordinates": [9.62108, 48.91353]}, "properties": {"name": "Gausmannsweiler", "kind": "Ort", "n": 3, "gazId": "", "src": "OSM"}}, {"type": "Feature", "geometry": {"type": "Point", "coordinates": [11.43615, 48.94573]}, "properties": {"name": "Gelbelsee", "kind": "Ort", "n": 1, "gazId": "", "src": "OSM"}}, {"type": "Feature", "geometry": {"type": "Point", "coordinates": [10.46449, 49.06956]}, "properties": {"name": "Gelsmühle", "kind": "Ort", "n": 1, "gazId": "", "src": "OSM"}}, {"type": "Feature", "geometry": {"type": "Point", "coordinates": [7.75735, 50.22775]}, "properties": {"name": "Gemmerich", "kind": "Ort", "n": 1, "gazId": "", "src": "OSM"}}, {"type": "Feature", "geometry": {"type": "Point", "coordinates": [8.4625, 49.91472]}, "properties": {"name": "Gerau", "kind": "Ort", "n": 1, "gazId": "2049198", "src": "iDAI"}}, {"type": "Feature", "geometry": {"type": "Point", "coordinates": [9.5043, 49.53482]}, "properties": {"name": "Gerichtstetten", "kind": "Ort", "n": 3, "gazId": "", "src": "OSM"}}, {"type": "Feature", "geometry": {"type": "Point", "coordinates": [8.49014, 49.75349]}, "properties": {"name": "Gernsheim", "kind": "Ort", "n": 2, "gazId": "2049199", "src": "iDAI"}}, {"type": "Feature", "geometry": {"type": "Point", "coordinates": [8.8825, 50.38131]}, "properties": {"name": "Gettenau", "kind": "Ort", "n": 2, "gazId": "", "src": "OSM"}}, {"type": "Feature", "geometry": {"type": "Point", "coordinates": [8.67022, 50.58198]}, "properties": {"name": "Giessen", "kind": "Ort", "n": 3, "gazId": "2176820", "src": "iDAI"}}, {"type": "Feature", "geometry": {"type": "Point", "coordinates": [9.36567, 49.62412]}, "properties": {"name": "Glashofen", "kind": "Ort", "n": 1, "gazId": "", "src": "OSM"}}, {"type": "Feature", "geometry": {"type": "Point", "coordinates": [8.4027, 50.21606]}, "properties": {"name": "Glashütten", "kind": "Ort", "n": 2, "gazId": "2049250", "src": "iDAI"}}, {"type": "Feature", "geometry": {"type": "Point", "coordinates": [10.82322, 50.86826]}, "properties": {"name": "Gleichen", "kind": "Ort", "n": 12, "gazId": "2141790", "src": "iDAI"}}, {"type": "Feature", "geometry": {"type": "Point", "coordinates": [9.79809, 48.79947]}, "properties": {"name": "Gmünd", "kind": "Ort", "n": 3, "gazId": "2045953", "src": "iDAI"}}, {"type": "Feature", "geometry": {"type": "Point", "coordinates": [10.71274, 49.05978]}, "properties": {"name": "Gnotzheim", "kind": "Ort", "n": 4, "gazId": "2048348", "src": "iDAI"}}, {"type": "Feature", "geometry": {"type": "Point", "coordinates": [11.76887, 50.1986]}, "properties": {"name": "Gottersdorf", "kind": "Ort", "n": 3, "gazId": "", "src": "OSM"}}, {"type": "Feature", "geometry": {"type": "Point", "coordinates": [52.9, 29.9]}, "properties": {"name": "Grab", "kind": "Ort", "n": 2, "gazId": "2765214", "src": "iDAI"}}, {"type": "Feature", "geometry": {"type": "Point", "coordinates": [10.91959, 48.98241]}, "properties": {"name": "Graben", "kind": "Ort", "n": 1, "gazId": "2048349", "src": "iDAI"}}, {"type": "Feature", "geometry": {"type": "Point", "coordinates": [7.9493, 50.48827]}, "properties": {"name": "Grauen Berg", "kind": "Berg", "n": 1, "gazId": "", "src": "OSM"}}, {"type": "Feature", "geometry": {"type": "Point", "coordinates": [11.8149, 50.55448]}, "properties": {"name": "Grauer Berg", "kind": "Berg", "n": 2, "gazId": "", "src": "OSM"}}, {"type": "Feature", "geometry": {"type": "Point", "coordinates": [7.93377, 50.1986]}, "properties": {"name": "Grebenroth", "kind": "Ort", "n": 1, "gazId": "", "src": "OSM"}}, {"type": "Feature", "geometry": {"type": "Point", "coordinates": [10.85212, 50.02503]}, "properties": {"name": "Greinberg", "kind": "Berg", "n": 3, "gazId": "", "src": "OSM"}}, {"type": "Feature", "geometry": {"type": "Point", "coordinates": [10.41176, 49.01108]}, "properties": {"name": "Greiselbach", "kind": "Ort", "n": 1, "gazId": "", "src": "OSM"}}, {"type": "Feature", "geometry": {"type": "Point", "coordinates": [7.66796, 50.43423]}, "properties": {"name": "Grenzhausen", "kind": "Ort", "n": 1, "gazId": "2052667", "src": "iDAI"}}, {"type": "Feature", "geometry": {"type": "Point", "coordinates": [8.70589, 50.43977]}, "properties": {"name": "Griedel", "kind": "Ort", "n": 1, "gazId": "2138285", "src": "iDAI"}}, {"type": "Feature", "geometry": {"type": "Point", "coordinates": [9.79172, 52.11083]}, "properties": {"name": "Gronau", "kind": "Ort", "n": 5, "gazId": "2050730", "src": "iDAI"}}, {"type": "Feature", "geometry": {"type": "Point", "coordinates": [8.77214, 50.19555]}, "properties": {"name": "Gronauer Hof", "kind": "Ort/Flur", "n": 2, "gazId": "", "src": "OSM"}}, {"type": "Feature", "geometry": {"type": "Point", "coordinates": [8.4625, 49.91472]}, "properties": {"name": "Gross-Gerau", "kind": "Ort", "n": 2, "gazId": "2049198", "src": "iDAI"}}, {"type": "Feature", "geometry": {"type": "Point", "coordinates": [8.95063, 50.10402]}, "properties": {"name": "Grossauheim", "kind": "Ort", "n": 1, "gazId": "2049341", "src": "iDAI"}}, {"type": "Feature", "geometry": {"type": "Point", "coordinates": [8.98449, 50.08201]}, "properties": {"name": "Grosskrotzenburg", "kind": "Ort", "n": 25, "gazId": "2180524", "src": "iDAI"}}, {"type": "Feature", "geometry": {"type": "Point", "coordinates": [10.63206, 49.11478]}, "properties": {"name": "Grosslellenfeld", "kind": "Ort", "n": 2, "gazId": "", "src": "OSM"}}, {"type": "Feature", "geometry": {"type": "Point", "coordinates": [10.43591, 53.41247]}, "properties": {"name": "Grünhof", "kind": "Wald", "n": 2, "gazId": "2769647", "src": "iDAI"}}, {"type": "Feature", "geometry": {"type": "Point", "coordinates": [8.72979, 50.50993]}, "properties": {"name": "Grüningen", "kind": "Ort", "n": 12, "gazId": "2049167", "src": "iDAI"}}, {"type": "Feature", "geometry": {"type": "Point", "coordinates": [10.82112, 49.11039]}, "properties": {"name": "Gundelshalm", "kind": "Ort", "n": 4, "gazId": "", "src": "OSM"}}, {"type": "Feature", "geometry": {"type": "Point", "coordinates": [9.16037, 49.2833]}, "properties": {"name": "Gundelsheim", "kind": "Ort", "n": 1, "gazId": "2123617", "src": "iDAI"}}, {"type": "Feature", "geometry": {"type": "Point", "coordinates": [10.92417, 49.03639]}, "properties": {"name": "Gunzenhausen", "kind": "Ort", "n": 4, "gazId": "2048313", "src": "iDAI"}}, {"type": "Feature", "geometry": {"type": "Point", "coordinates": [11.78254, 48.82182]}, "properties": {"name": "Gögging", "kind": "Ort", "n": 1, "gazId": "2047399", "src": "iDAI"}}, {"type": "Feature", "geometry": {"type": "Point", "coordinates": [9.11217, 49.67685]}, "properties": {"name": "Gönzbach", "kind": "Fluss", "n": 1, "gazId": "", "src": "OSM"}}, {"type": "Feature", "geometry": {"type": "Point", "coordinates": [9.69505, 48.81034]}, "properties": {"name": "Götzenbach", "kind": "Fluss", "n": 1, "gazId": "", "src": "OSM"}}, {"type": "Feature", "geometry": {"type": "Point", "coordinates": [9.39349, 49.49715]}, "properties": {"name": "Götzingen", "kind": "Ort", "n": 3, "gazId": "", "src": "OSM"}}, {"type": "Feature", "geometry": {"type": "Point", "coordinates": [10.94129, 49.09241]}, "properties": {"name": "Gündersbach", "kind": "Ort", "n": 2, "gazId": "2048322", "src": "iDAI"}}, {"type": "Feature", "geometry": {"type": "Point", "coordinates": [11.60122, 48.32333]}, "properties": {"name": "Günzenhausen", "kind": "Ort", "n": 15, "gazId": "2047305", "src": "iDAI"}}, {"type": "Feature", "geometry": {"type": "Point", "coordinates": [10.79637, 49.51423]}, "properties": {"name": "Hagenmühle", "kind": "Ort", "n": 1, "gazId": "", "src": "OSM"}}, {"type": "Feature", "geometry": {"type": "Point", "coordinates": [9.64582, 48.84771]}, "properties": {"name": "Haghof", "kind": "Ort", "n": 3, "gazId": "", "src": "OSM"}}, {"type": "Feature", "geometry": {"type": "Point", "coordinates": [16.02503, 47.28028]}, "properties": {"name": "Haide", "kind": "Wald", "n": 1, "gazId": "2062965", "src": "iDAI"}}, {"type": "Feature", "geometry": {"type": "Point", "coordinates": [9.08381, 49.73307]}, "properties": {"name": "Hainhaus", "kind": "Ort", "n": 2, "gazId": "", "src": "OSM"}}, {"type": "Feature", "geometry": {"type": "Point", "coordinates": [9.73908, 49.11127]}, "properties": {"name": "Hall (Schwäbisch Hall)", "kind": "Ort", "n": 1, "gazId": "2120007", "src": "iDAI"}}, {"type": "Feature", "geometry": {"type": "Point", "coordinates": [7.18167, 51.74374]}, "properties": {"name": "Haltern", "kind": "Ort", "n": 1, "gazId": "2051849", "src": "iDAI"}}, {"type": "Feature", "geometry": {"type": "Point", "coordinates": [6.44679, 50.89811]}, "properties": {"name": "Hambach", "kind": "Fluss", "n": 2, "gazId": "2140201", "src": "iDAI"}}, {"type": "Feature", "geometry": {"type": "Point", "coordinates": [10.35786, 49.13109]}, "properties": {"name": "Hammerschmiede", "kind": "Ort", "n": 3, "gazId": "", "src": "OSM"}}, {"type": "Feature", "geometry": {"type": "Point", "coordinates": [10.04868, 48.85648]}, "properties": {"name": "Hammerstadt", "kind": "Ort", "n": 1, "gazId": "", "src": "OSM"}}, {"type": "Feature", "geometry": {"type": "Point", "coordinates": [8.91633, 50.12834]}, "properties": {"name": "Hanau", "kind": "Ort", "n": 14, "gazId": "2180527", "src": "iDAI"}}, {"type": "Feature", "geometry": {"type": "Point", "coordinates": [8.88957, 50.13268]}, "properties": {"name": "Hanau-Kesselstadt", "kind": "Ort", "n": 1, "gazId": "2049342", "src": "iDAI"}}, {"type": "Feature", "geometry": {"type": "Point", "coordinates": [9.73838, 48.79586]}, "properties": {"name": "Hangen-Deinbach", "kind": "Ort", "n": 1, "gazId": "", "src": "OSM"}}, {"type": "Feature", "geometry": {"type": "Point", "coordinates": [9.73838, 48.79586]}, "properties": {"name": "Hangendeinbach", "kind": "Ort", "n": 1, "gazId": "", "src": "OSM"}}, {"type": "Feature", "geometry": {"type": "Point", "coordinates": [9.57393, 49.05569]}, "properties": {"name": "Hankertsmühle", "kind": "Ort", "n": 2, "gazId": "", "src": "OSM"}}, {"type": "Feature", "geometry": {"type": "Point", "coordinates": [9.73322, 52.37052]}, "properties": {"name": "Hannover", "kind": "Ort", "n": 2, "gazId": "2050656", "src": "iDAI"}}, {"type": "Feature", "geometry": {"type": "Point", "coordinates": [7.05181, 50.70632]}, "properties": {"name": "Hardtberg", "kind": "Berg", "n": 3, "gazId": "", "src": "OSM"}}, {"type": "Feature", "geometry": {"type": "Point", "coordinates": [9.40698, 48.5242]}, "properties": {"name": "Harlach", "kind": "Kastell", "n": 2, "gazId": "", "src": "OSM"}}, {"type": "Feature", "geometry": {"type": "Point", "coordinates": [9.53938, 49.15609]}, "properties": {"name": "Harsberg", "kind": "Ort", "n": 4, "gazId": "", "src": "OSM"}}, {"type": "Feature", "geometry": {"type": "Point", "coordinates": [11.47042, 48.76958]}, "properties": {"name": "Haselbeck", "kind": "Kastell", "n": 2, "gazId": "", "src": "OSM"}}, {"type": "Feature", "geometry": {"type": "Point", "coordinates": [9.3, 49.6]}, "properties": {"name": "Haselburg", "kind": "Kastell", "n": 6, "gazId": "2424904", "src": "iDAI"}}, {"type": "Feature", "geometry": {"type": "Point", "coordinates": [7.65744, 50.90791]}, "properties": {"name": "Hasenbach", "kind": "Fluss", "n": 2, "gazId": "", "src": "OSM"}}, {"type": "Feature", "geometry": {"type": "Point", "coordinates": [8.74104, 50.54495]}, "properties": {"name": "Hausen", "kind": "Ort", "n": 4, "gazId": "2049179", "src": "iDAI"}}, {"type": "Feature", "geometry": {"type": "Point", "coordinates": [8.64246, 50.16101]}, "properties": {"name": "Heddernheim", "kind": "Ort", "n": 35, "gazId": "2181137", "src": "iDAI"}}, {"type": "Feature", "geometry": {"type": "Point", "coordinates": [7.47175, 50.44295]}, "properties": {"name": "Heddesdorf", "kind": "Ort", "n": 3, "gazId": "2052513", "src": "iDAI"}}, {"type": "Feature", "geometry": {"type": "Point", "coordinates": [8.60361, 49.50556]}, "properties": {"name": "Heddesheim", "kind": "Ort", "n": 2, "gazId": "2046113", "src": "iDAI"}}, {"type": "Feature", "geometry": {"type": "Point", "coordinates": [8.33357, 50.22067]}, "properties": {"name": "Heftrich", "kind": "Ort", "n": 9, "gazId": "2049465", "src": "iDAI"}}, {"type": "Feature", "geometry": {"type": "Point", "coordinates": [8.69556, 49.41056]}, "properties": {"name": "Heidelberg", "kind": "Ort", "n": 5, "gazId": "2045637", "src": "iDAI"}}, {"type": "Feature", "geometry": {"type": "Point", "coordinates": [8.23486, 50.08627]}, "properties": {"name": "Heidenberg", "kind": "Berg", "n": 1, "gazId": "2181115", "src": "iDAI"}}, {"type": "Feature", "geometry": {"type": "Point", "coordinates": [10.15162, 48.67798]}, "properties": {"name": "Heidenheim", "kind": "Ort", "n": 2, "gazId": "2045640", "src": "iDAI"}}, {"type": "Feature", "geometry": {"type": "Point", "coordinates": [10.22947, 48.75387]}, "properties": {"name": "Heidenheim an der Brenz", "kind": "Ort", "n": 2, "gazId": "2123718", "src": "iDAI"}}, {"type": "Feature", "geometry": {"type": "Point", "coordinates": [8.53127, 50.55003]}, "properties": {"name": "Heidenstock", "kind": "Kastell", "n": 2, "gazId": "", "src": "OSM"}}, {"type": "Feature", "geometry": {"type": "Point", "coordinates": [7.15604, 50.37501]}, "properties": {"name": "Heidestock", "kind": "Kastell", "n": 2, "gazId": "", "src": "OSM"}}, {"type": "Feature", "geometry": {"type": "Point", "coordinates": [9.22054, 49.13995]}, "properties": {"name": "Heilbronn", "kind": "Ort", "n": 2, "gazId": "2089777", "src": "iDAI"}}, {"type": "Feature", "geometry": {"type": "Point", "coordinates": [7.54406, 50.44904]}, "properties": {"name": "Heimbach", "kind": "Ort", "n": 2, "gazId": "2052529", "src": "iDAI"}}, {"type": "Feature", "geometry": {"type": "Point", "coordinates": [8.86319, 50.23364]}, "properties": {"name": "Heldenbergen", "kind": "Ort", "n": 19, "gazId": "2119743", "src": "iDAI"}}, {"type": "Feature", "geometry": {"type": "Point", "coordinates": [7.40747, 50.93503]}, "properties": {"name": "Henningen", "kind": "Ort", "n": 1, "gazId": "", "src": "OSM"}}, {"type": "Feature", "geometry": {"type": "Point", "coordinates": [9.84647, 48.81925]}, "properties": {"name": "Herlikofen", "kind": "Ort", "n": 3, "gazId": "", "src": "OSM"}}, {"type": "Feature", "geometry": {"type": "Point", "coordinates": [9.08763, 49.57498]}, "properties": {"name": "Hesselbach", "kind": "Ort", "n": 7, "gazId": "2276382", "src": "iDAI"}}, {"type": "Feature", "geometry": {"type": "Point", "coordinates": [10.86848, 49.65818]}, "properties": {"name": "Hesselberg", "kind": "Berg", "n": 1, "gazId": "2047237", "src": "iDAI"}}, {"type": "Feature", "geometry": {"type": "Point", "coordinates": [8.26991, 50.74592]}, "properties": {"name": "Hessen-Nassau", "kind": "Region", "n": 1, "gazId": "", "src": "OSM"}}, {"type": "Feature", "geometry": {"type": "Point", "coordinates": [8.98821, 49.59344]}, "properties": {"name": "Hetzbach", "kind": "Ort", "n": 1, "gazId": "", "src": "OSM"}}, {"type": "Feature", "geometry": {"type": "Point", "coordinates": [9.46887, 49.33505]}, "properties": {"name": "Heubirken", "kind": "Ort", "n": 2, "gazId": "", "src": "OSM"}}, {"type": "Feature", "geometry": {"type": "Point", "coordinates": [9.07998, 49.82305]}, "properties": {"name": "Heubusch", "kind": "Flur/Wald", "n": 1, "gazId": "", "src": "OSM"}}, {"type": "Feature", "geometry": {"type": "Point", "coordinates": [9.94462, 48.85188]}, "properties": {"name": "Heuchlingen", "kind": "Ort", "n": 1, "gazId": "", "src": "OSM"}}, {"type": "Feature", "geometry": {"type": "Point", "coordinates": [11.76665, 48.86378]}, "properties": {"name": "Hienheim", "kind": "Ort", "n": 2, "gazId": "2047416", "src": "iDAI"}}, {"type": "Feature", "geometry": {"type": "Point", "coordinates": [11.17116, 50.15009]}, "properties": {"name": "Hochstadt", "kind": "Ort", "n": 1, "gazId": "2047614", "src": "iDAI"}}, {"type": "Feature", "geometry": {"type": "Point", "coordinates": [8.44183, 50.08485]}, "properties": {"name": "Hofheim", "kind": "Ort", "n": 13, "gazId": "2276404", "src": "iDAI"}}, {"type": "Feature", "geometry": {"type": "Point", "coordinates": [8.44183, 50.08485]}, "properties": {"name": "Hofheim a. Taunus", "kind": "Ort", "n": 4, "gazId": "2276404", "src": "iDAI"}}, {"type": "Feature", "geometry": {"type": "Point", "coordinates": [20.28333, 53.58333]}, "properties": {"name": "Hohenstein", "kind": "Ort", "n": 1, "gazId": "2054819", "src": "iDAI"}}, {"type": "Feature", "geometry": {"type": "Point", "coordinates": [8.52536, 50.81416]}, "properties": {"name": "Holzhausen a. d. H.", "kind": "Ort", "n": 1, "gazId": "", "src": "OSM"}}, {"type": "Feature", "geometry": {"type": "Point", "coordinates": [7.91043, 50.21896]}, "properties": {"name": "Holzhausen a. d. Haide", "kind": "Ort", "n": 1, "gazId": "", "src": "OSM"}}, {"type": "Feature", "geometry": {"type": "Point", "coordinates": [7.90683, 50.21821]}, "properties": {"name": "Holzhausen an der Haide", "kind": "Kastell", "n": 12, "gazId": "2122013", "src": "iDAI"}}, {"type": "Feature", "geometry": {"type": "Point", "coordinates": [8.67478, 50.26212]}, "properties": {"name": "Holzhausen vor der Höhe", "kind": "Ort", "n": 1, "gazId": "", "src": "OSM"}}, {"type": "Feature", "geometry": {"type": "Point", "coordinates": [9.67062, 50.78168]}, "properties": {"name": "Holzheim", "kind": "Ort", "n": 1, "gazId": "2137972", "src": "iDAI"}}, {"type": "Feature", "geometry": {"type": "Point", "coordinates": [8.61687, 50.22551]}, "properties": {"name": "Homburg", "kind": "Ort", "n": 8, "gazId": "2087089", "src": "iDAI"}}, {"type": "Feature", "geometry": {"type": "Point", "coordinates": [8.61816, 50.22683]}, "properties": {"name": "Homburg vor der Höhe", "kind": "Ort", "n": 6, "gazId": "2768138", "src": "iDAI"}}, {"type": "Feature", "geometry": {"type": "Point", "coordinates": [8.9417, 50.49369]}, "properties": {"name": "Horloff", "kind": "Fluss", "n": 4, "gazId": "", "src": "OSM"}}, {"type": "Feature", "geometry": {"type": "Point", "coordinates": [8.93751, 49.77909]}, "properties": {"name": "Hummetroth", "kind": "Ort", "n": 1, "gazId": "2049426", "src": "iDAI"}}, {"type": "Feature", "geometry": {"type": "Point", "coordinates": [9.75011, 50.65244]}, "properties": {"name": "Hundsküppel", "kind": "Berg", "n": 1, "gazId": "", "src": "OSM"}}, {"type": "Feature", "geometry": {"type": "Point", "coordinates": [8.9239, 50.44379]}, "properties": {"name": "Hungen", "kind": "Ort", "n": 1, "gazId": "2049165", "src": "iDAI"}}, {"type": "Feature", "geometry": {"type": "Point", "coordinates": [9.77038, 48.64051]}, "properties": {"name": "Hunnenburg", "kind": "Kastell", "n": 2, "gazId": "", "src": "OSM"}}, {"type": "Feature", "geometry": {"type": "Point", "coordinates": [8.62911, 50.41451]}, "properties": {"name": "Hunnenkirchhof", "kind": "Kastell", "n": 4, "gazId": "", "src": "OSM"}}, {"type": "Feature", "geometry": {"type": "Point", "coordinates": [7.83795, 50.24803]}, "properties": {"name": "Hunzel", "kind": "Kastell", "n": 5, "gazId": "2052048", "src": "iDAI"}}, {"type": "Feature", "geometry": {"type": "Point", "coordinates": [8.00556, 50.19049]}, "properties": {"name": "Huppert", "kind": "Ort", "n": 1, "gazId": "2049461", "src": "iDAI"}}, {"type": "Feature", "geometry": {"type": "Point", "coordinates": [9.85427, 48.8093]}, "properties": {"name": "Hussenhofen", "kind": "Ort", "n": 1, "gazId": "", "src": "OSM"}}, {"type": "Feature", "geometry": {"type": "Point", "coordinates": [8.92657, 50.27063]}, "properties": {"name": "Höchst", "kind": "Ort", "n": 8, "gazId": "2049524", "src": "iDAI"}}, {"type": "Feature", "geometry": {"type": "Point", "coordinates": [10.91041, 48.9141]}, "properties": {"name": "Höfen", "kind": "Ort", "n": 1, "gazId": "2048353", "src": "iDAI"}}, {"type": "Feature", "geometry": {"type": "Point", "coordinates": [11.2844, 47.87598]}, "properties": {"name": "Höhenried", "kind": "Ort", "n": 1, "gazId": "", "src": "OSM"}}, {"type": "Feature", "geometry": {"type": "Point", "coordinates": [7.66796, 50.43423]}, "properties": {"name": "Höhr", "kind": "Ort", "n": 1, "gazId": "2052667", "src": "iDAI"}}, {"type": "Feature", "geometry": {"type": "Point", "coordinates": [9.15998, 49.46641]}, "properties": {"name": "Hönehaus", "kind": "Kastell", "n": 3, "gazId": "", "src": "OSM"}}, {"type": "Feature", "geometry": {"type": "Point", "coordinates": [9.15998, 49.46641]}, "properties": {"name": "Hönehaus (Kleinkastell)", "kind": "Kastell", "n": 2, "gazId": "", "src": "OSM"}}, {"type": "Feature", "geometry": {"type": "Point", "coordinates": [8.48831, 47.92543]}, "properties": {"name": "Hüfingen", "kind": "Ort", "n": 1, "gazId": "2045267", "src": "iDAI"}}, {"type": "Feature", "geometry": {"type": "Point", "coordinates": [11.33752, 49.6574]}, "properties": {"name": "Hüllweiher", "kind": "Ort", "n": 1, "gazId": "", "src": "OSM"}}, {"type": "Feature", "geometry": {"type": "Point", "coordinates": [7.4173, 50.72866]}, "properties": {"name": "Hülscheid", "kind": "Ort", "n": 7, "gazId": "", "src": "OSM"}}, {"type": "Feature", "geometry": {"type": "Point", "coordinates": [10.09971, 48.89357]}, "properties": {"name": "Hüttlingen", "kind": "Ort", "n": 2, "gazId": "", "src": "OSM"}}, {"type": "Feature", "geometry": {"type": "Point", "coordinates": [8.27977, 50.27002]}, "properties": {"name": "Idstein", "kind": "Ort", "n": 1, "gazId": "2049466", "src": "iDAI"}}, {"type": "Feature", "geometry": {"type": "Point", "coordinates": [9.87721, 48.83274]}, "properties": {"name": "Iggingen", "kind": "Ort", "n": 1, "gazId": "", "src": "OSM"}}, {"type": "Feature", "geometry": {"type": "Point", "coordinates": [8.32766, 50.08052]}, "properties": {"name": "Igstadt", "kind": "Ort", "n": 1, "gazId": "2181114", "src": "iDAI"}}, {"type": "Feature", "geometry": {"type": "Point", "coordinates": [11.76301, 50.92302]}, "properties": {"name": "Ilmsdorf", "kind": "Ort", "n": 2, "gazId": "", "src": "OSM"}}, {"type": "Feature", "geometry": {"type": "Point", "coordinates": [8.89488, 50.45978]}, "properties": {"name": "Inheiden", "kind": "Ort/Kastell", "n": 1, "gazId": "2049164", "src": "iDAI"}}, {"type": "Feature", "geometry": {"type": "Point", "coordinates": [11.74464, 48.83524]}, "properties": {"name": "Irnsing", "kind": "Ort", "n": 9, "gazId": "2047418", "src": "iDAI"}}, {"type": "Feature", "geometry": {"type": "Point", "coordinates": [9.8327, 49.24974]}, "properties": {"name": "Jagst", "kind": "Fluss", "n": 13, "gazId": "", "src": "OSM"}}, {"type": "Feature", "geometry": {"type": "Point", "coordinates": [9.19401, 49.23695]}, "properties": {"name": "Jagstfeld", "kind": "Ort", "n": 2, "gazId": "", "src": "OSM"}}, {"type": "Feature", "geometry": {"type": "Point", "coordinates": [9.46833, 49.31056]}, "properties": {"name": "Jagsthausen", "kind": "Ort", "n": 14, "gazId": "2045676", "src": "iDAI"}}, {"type": "Feature", "geometry": {"type": "Point", "coordinates": [6.57306, 50.34624]}, "properties": {"name": "Jünkerath", "kind": "Ort", "n": 1, "gazId": "2052117", "src": "iDAI"}}, {"type": "Feature", "geometry": {"type": "Point", "coordinates": [8.83797, 50.25454]}, "properties": {"name": "Kaichen", "kind": "Ort", "n": 3, "gazId": "", "src": "OSM"}}, {"type": "Feature", "geometry": {"type": "Point", "coordinates": [11.17991, 48.99158]}, "properties": {"name": "Kaldorf", "kind": "Ort", "n": 1, "gazId": "2047153", "src": "iDAI"}}, {"type": "Feature", "geometry": {"type": "Point", "coordinates": [10.15506, 49.66994]}, "properties": {"name": "Kapellenberg", "kind": "Berg", "n": 3, "gazId": "2047502", "src": "iDAI"}}, {"type": "Feature", "geometry": {"type": "Point", "coordinates": [8.63566, 50.31304]}, "properties": {"name": "Kapersburg", "kind": "Kastell", "n": 16, "gazId": "2049567", "src": "iDAI"}}, {"type": "Feature", "geometry": {"type": "Point", "coordinates": [9.59991, 48.06047]}, "properties": {"name": "Kappel", "kind": "Ort", "n": 2, "gazId": "2045434", "src": "iDAI"}}, {"type": "Feature", "geometry": {"type": "Point", "coordinates": [8.40444, 49.00936]}, "properties": {"name": "Karlsruhe", "kind": "Ort", "n": 3, "gazId": "2424900", "src": "iDAI"}}, {"type": "Feature", "geometry": {"type": "Point", "coordinates": [6.55663, 49.56695]}, "properties": {"name": "Kastel", "kind": "Ort", "n": 2, "gazId": "2052632", "src": "iDAI"}}, {"type": "Feature", "geometry": {"type": "Point", "coordinates": [8.28513, 50.00961]}, "properties": {"name": "Kastel-Mainz", "kind": "Ort", "n": 1, "gazId": "2181107", "src": "iDAI"}}, {"type": "Feature", "geometry": {"type": "Point", "coordinates": [10.08333, 48.83543]}, "properties": {"name": "Kastell Aalen", "kind": "Kastell", "n": 1, "gazId": "", "src": "OSM"}}, {"type": "Feature", "geometry": {"type": "Point", "coordinates": [8.33317, 50.20826]}, "properties": {"name": "Kastell Alteburg", "kind": "Kastell", "n": 2, "gazId": "", "src": "OSM"}}, {"type": "Feature", "geometry": {"type": "Point", "coordinates": [8.66528, 50.44068]}, "properties": {"name": "Kastell Butzbach", "kind": "Kastell", "n": 5, "gazId": "", "src": "OSM"}}, {"type": "Feature", "geometry": {"type": "Point", "coordinates": [9.21131, 48.81423]}, "properties": {"name": "Kastell Cannstatt", "kind": "Kastell", "n": 3, "gazId": "", "src": "OSM"}}, {"type": "Feature", "geometry": {"type": "Point", "coordinates": [9.07555, 49.67941]}, "properties": {"name": "Kastell Eulbach", "kind": "Kastell", "n": 2, "gazId": "", "src": "OSM"}}, {"type": "Feature", "geometry": {"type": "Point", "coordinates": [8.44466, 50.22713]}, "properties": {"name": "Kastell Feldberg", "kind": "Kastell", "n": 4, "gazId": "", "src": "OSM"}}, {"type": "Feature", "geometry": {"type": "Point", "coordinates": [9.08459, 49.73402]}, "properties": {"name": "Kastell Hainhaus", "kind": "Kastell", "n": 2, "gazId": "", "src": "OSM"}}, {"type": "Feature", "geometry": {"type": "Point", "coordinates": [9.09006, 49.57641]}, "properties": {"name": "Kastell Hesselbach", "kind": "Kastell", "n": 3, "gazId": "", "src": "OSM"}}, {"type": "Feature", "geometry": {"type": "Point", "coordinates": [8.44667, 50.08621]}, "properties": {"name": "Kastell Hofheim", "kind": "Kastell", "n": 4, "gazId": "", "src": "OSM"}}, {"type": "Feature", "geometry": {"type": "Point", "coordinates": [10.48059, 49.04642]}, "properties": {"name": "Kastell Ruffenhofen", "kind": "Kastell", "n": 2, "gazId": "", "src": "OSM"}}, {"type": "Feature", "geometry": {"type": "Point", "coordinates": [8.98202, 50.15362]}, "properties": {"name": "Kastell Rückingen", "kind": "Kastell", "n": 3, "gazId": "", "src": "OSM"}}, {"type": "Feature", "geometry": {"type": "Point", "coordinates": [9.06809, 49.97463]}, "properties": {"name": "Kastell Stockstadt", "kind": "Kastell", "n": 1, "gazId": "", "src": "OSM"}}, {"type": "Feature", "geometry": {"type": "Point", "coordinates": [10.84699, 49.08957]}, "properties": {"name": "Kastell Theilenhofen", "kind": "Kastell", "n": 2, "gazId": "", "src": "OSM"}}, {"type": "Feature", "geometry": {"type": "Point", "coordinates": [9.92361, 48.81925]}, "properties": {"name": "Kastell Unterböbingen", "kind": "Kastell", "n": 3, "gazId": "", "src": "OSM"}}, {"type": "Feature", "geometry": {"type": "Point", "coordinates": [9.63384, 48.88658]}, "properties": {"name": "Kastell Welzheim", "kind": "Kastell", "n": 2, "gazId": "", "src": "OSM"}}, {"type": "Feature", "geometry": {"type": "Point", "coordinates": [11.31026, 47.94151]}, "properties": {"name": "Kastell Wörth", "kind": "Kastell", "n": 3, "gazId": "", "src": "OSM"}}, {"type": "Feature", "geometry": {"type": "Point", "coordinates": [8.20278, 50.19046]}, "properties": {"name": "Kastell Zugmantel", "kind": "Kastell", "n": 6, "gazId": "2049474", "src": "iDAI"}}, {"type": "Feature", "geometry": {"type": "Point", "coordinates": [11.68088, 48.81428]}, "properties": {"name": "Kels", "kind": "Fluss", "n": 1, "gazId": "", "src": "OSM"}}, {"type": "Feature", "geometry": {"type": "Point", "coordinates": [8.01659, 50.16519]}, "properties": {"name": "Kemel", "kind": "Ort", "n": 11, "gazId": "2049453", "src": "iDAI"}}, {"type": "Feature", "geometry": {"type": "Point", "coordinates": [9.49976, 49.3854]}, "properties": {"name": "Kessach", "kind": "Fluss", "n": 1, "gazId": "", "src": "OSM"}}, {"type": "Feature", "geometry": {"type": "Point", "coordinates": [11.3492, 47.62157]}, "properties": {"name": "Kesselberg", "kind": "Berg", "n": 1, "gazId": "", "src": "OSM"}}, {"type": "Feature", "geometry": {"type": "Point", "coordinates": [8.88957, 50.13268]}, "properties": {"name": "Kesselstadt", "kind": "Ort", "n": 11, "gazId": "2049342", "src": "iDAI"}}, {"type": "Feature", "geometry": {"type": "Point", "coordinates": [8.53744, 50.26138]}, "properties": {"name": "Kieshübel", "kind": "Berg", "n": 8, "gazId": "", "src": "OSM"}}, {"type": "Feature", "geometry": {"type": "Point", "coordinates": [9.30472, 50.25]}, "properties": {"name": "Kinzig", "kind": "Fluss", "n": 6, "gazId": "2049317", "src": "iDAI"}}, {"type": "Feature", "geometry": {"type": "Point", "coordinates": [8.08941, 48.27773]}, "properties": {"name": "Kinzigtal", "kind": "Region", "n": 2, "gazId": "2045907", "src": "iDAI"}}, {"type": "Feature", "geometry": {"type": "Point", "coordinates": [11.39745, 48.95256]}, "properties": {"name": "Kipfenberg", "kind": "Ort", "n": 12, "gazId": "2109403", "src": "iDAI"}}, {"type": "Feature", "geometry": {"type": "Point", "coordinates": [9.98173, 49.20448]}, "properties": {"name": "Kirchberg an der Jagst", "kind": "Ort", "n": 1, "gazId": "", "src": "OSM"}}, {"type": "Feature", "geometry": {"type": "Point", "coordinates": [9.45106, 49.44796]}, "properties": {"name": "Kirnau", "kind": "Fluss", "n": 1, "gazId": "", "src": "OSM"}}, {"type": "Feature", "geometry": {"type": "Point", "coordinates": [7.79398, 50.45158]}, "properties": {"name": "Kl. Dernbach", "kind": "Ort", "n": 1, "gazId": "", "src": "OSM"}}, {"type": "Feature", "geometry": {"type": "Point", "coordinates": [9.75039, 48.79367]}, "properties": {"name": "Klein-Deinbach", "kind": "Ort", "n": 3, "gazId": "", "src": "OSM"}}, {"type": "Feature", "geometry": {"type": "Point", "coordinates": [8.44673, 50.22222]}, "properties": {"name": "Kleiner Feldberg", "kind": "Berg", "n": 2, "gazId": "2049251", "src": "iDAI"}}, {"type": "Feature", "geometry": {"type": "Point", "coordinates": [10.6403, 49.11078]}, "properties": {"name": "Kleinlellenfeld", "kind": "Ort", "n": 2, "gazId": "2046743", "src": "iDAI"}}, {"type": "Feature", "geometry": {"type": "Point", "coordinates": [8.50267, 50.24822]}, "properties": {"name": "Klingenkopf", "kind": "Berg", "n": 3, "gazId": "", "src": "OSM"}}, {"type": "Feature", "geometry": {"type": "Point", "coordinates": [8.79138, 50.49401]}, "properties": {"name": "Kloster Arnsburg", "kind": "Ort", "n": 8, "gazId": "2049188", "src": "iDAI"}}, {"type": "Feature", "geometry": {"type": "Point", "coordinates": [7.45374, 50.31434]}, "properties": {"name": "Kobern", "kind": "Ort", "n": 2, "gazId": "2052379", "src": "iDAI"}}, {"type": "Feature", "geometry": {"type": "Point", "coordinates": [11.64896, 48.89172]}, "properties": {"name": "Kochberg", "kind": "Berg", "n": 1, "gazId": "", "src": "OSM"}}, {"type": "Feature", "geometry": {"type": "Point", "coordinates": [9.33215, 49.23498]}, "properties": {"name": "Kocher", "kind": "Fluss", "n": 13, "gazId": "2045681", "src": "iDAI"}}, {"type": "Feature", "geometry": {"type": "Point", "coordinates": [8.4965, 50.24156]}, "properties": {"name": "Kolbenberg", "kind": "Berg", "n": 1, "gazId": "", "src": "OSM"}}, {"type": "Feature", "geometry": {"type": "Point", "coordinates": [11.17327, 49.11252]}, "properties": {"name": "Kolbenhof", "kind": "Ort", "n": 1, "gazId": "", "src": "OSM"}}, {"type": "Feature", "geometry": {"type": "Point", "coordinates": [10.57867, 49.10508]}, "properties": {"name": "Kreutweiher", "kind": "Ort/Flur", "n": 2, "gazId": "", "src": "OSM"}}, {"type": "Feature", "geometry": {"type": "Point", "coordinates": [8.92064, 48.91337]}, "properties": {"name": "Kreuzbach", "kind": "Ort", "n": 1, "gazId": "", "src": "OSM"}}, {"type": "Feature", "geometry": {"type": "Point", "coordinates": [8.46883, 50.08353]}, "properties": {"name": "Kriftel", "kind": "Ort", "n": 1, "gazId": "2049368", "src": "iDAI"}}, {"type": "Feature", "geometry": {"type": "Point", "coordinates": [16.5, 48.4]}, "properties": {"name": "Kronberg", "kind": "Ort", "n": 1, "gazId": "2789513", "src": "iDAI"}}, {"type": "Feature", "geometry": {"type": "Point", "coordinates": [7.55755, 50.45725]}, "properties": {"name": "Kuckucksberg", "kind": "Berg", "n": 1, "gazId": "", "src": "OSM"}}, {"type": "Feature", "geometry": {"type": "Point", "coordinates": [6.89821, 50.93636]}, "properties": {"name": "Köln", "kind": "Ort", "n": 2, "gazId": "2051670", "src": "iDAI"}}, {"type": "Feature", "geometry": {"type": "Point", "coordinates": [9.3691, 48.6817]}, "properties": {"name": "Köngen", "kind": "Ort", "n": 2, "gazId": "2045604", "src": "iDAI"}}, {"type": "Feature", "geometry": {"type": "Point", "coordinates": [9.03625, 48.57967]}, "properties": {"name": "Königseiche", "kind": "Ort", "n": 1, "gazId": "", "src": "OSM"}}, {"type": "Feature", "geometry": {"type": "Point", "coordinates": [8.47737, 50.19397]}, "properties": {"name": "Königstein", "kind": "Ort", "n": 1, "gazId": "2049239", "src": "iDAI"}}, {"type": "Feature", "geometry": {"type": "Point", "coordinates": [8.65057, 50.27497]}, "properties": {"name": "Köppern", "kind": "Ort", "n": 1, "gazId": "2176905", "src": "iDAI"}}, {"type": "Feature", "geometry": {"type": "Point", "coordinates": [11.49986, 48.81095]}, "properties": {"name": "Kösching", "kind": "Ort", "n": 4, "gazId": "2103703", "src": "iDAI"}}, {"type": "Feature", "geometry": {"type": "Point", "coordinates": [8.62032, 49.39844]}, "properties": {"name": "Külbach", "kind": "Ort", "n": 1, "gazId": "", "src": "OSM"}}, {"type": "Feature", "geometry": {"type": "Point", "coordinates": [9.68385, 49.2808]}, "properties": {"name": "Künzelsau", "kind": "Ort", "n": 1, "gazId": "2119257", "src": "iDAI"}}, {"type": "Feature", "geometry": {"type": "Point", "coordinates": [7.59827, 50.30789]}, "properties": {"name": "Lahn", "kind": "Fluss", "n": 2, "gazId": "2049110", "src": "iDAI"}}, {"type": "Feature", "geometry": {"type": "Point", "coordinates": [11.71336, 48.88145]}, "properties": {"name": "Laimerstadt", "kind": "Ort", "n": 1, "gazId": "", "src": "OSM"}}, {"type": "Feature", "geometry": {"type": "Point", "coordinates": [8.66315, 50.49771]}, "properties": {"name": "Lang-Göns", "kind": "Ort", "n": 1, "gazId": "2049184", "src": "iDAI"}}, {"type": "Feature", "geometry": {"type": "Point", "coordinates": [8.98004, 50.17242]}, "properties": {"name": "Langendiebach", "kind": "Ort", "n": 3, "gazId": "2180212", "src": "iDAI"}}, {"type": "Feature", "geometry": {"type": "Point", "coordinates": [8.63982, 50.3669]}, "properties": {"name": "Langenhain", "kind": "Ort", "n": 8, "gazId": "2049545", "src": "iDAI"}}, {"type": "Feature", "geometry": {"type": "Point", "coordinates": [9.10317, 48.04592]}, "properties": {"name": "Langenhart", "kind": "Ort", "n": 1, "gazId": "", "src": "OSM"}}, {"type": "Feature", "geometry": {"type": "Point", "coordinates": [8.07199, 50.14169]}, "properties": {"name": "Langenschwalbach", "kind": "Ort", "n": 2, "gazId": "", "src": "OSM"}}, {"type": "Feature", "geometry": {"type": "Point", "coordinates": [9.04063, 50.17602]}, "properties": {"name": "Langenselbold", "kind": "Ort", "n": 1, "gazId": "2049351", "src": "iDAI"}}, {"type": "Feature", "geometry": {"type": "Point", "coordinates": [8.66315, 50.49771]}, "properties": {"name": "Langgöns", "kind": "Ort", "n": 1, "gazId": "2049184", "src": "iDAI"}}, {"type": "Feature", "geometry": {"type": "Point", "coordinates": [9.71234, 51.3987]}, "properties": {"name": "Laubach", "kind": "Ort", "n": 1, "gazId": "2050582", "src": "iDAI"}}, {"type": "Feature", "geometry": {"type": "Point", "coordinates": [7.99603, 50.21163]}, "properties": {"name": "Laufenselden", "kind": "Ort", "n": 4, "gazId": "2049454", "src": "iDAI"}}, {"type": "Feature", "geometry": {"type": "Point", "coordinates": [8.67857, 50.52837]}, "properties": {"name": "Leihgestern", "kind": "Ort", "n": 1, "gazId": "", "src": "OSM"}}, {"type": "Feature", "geometry": {"type": "Point", "coordinates": [9.78332, 48.84558]}, "properties": {"name": "Lein", "kind": "Fluss", "n": 2, "gazId": "", "src": "OSM"}}, {"type": "Feature", "geometry": {"type": "Point", "coordinates": [12.37129, 51.33962]}, "properties": {"name": "Leipzig", "kind": "Ort", "n": 1, "gazId": "2315108", "src": "iDAI"}}, {"type": "Feature", "geometry": {"type": "Point", "coordinates": [10.64101, 49.11017]}, "properties": {"name": "Lellenfeld", "kind": "Ort", "n": 3, "gazId": "", "src": "OSM"}}, {"type": "Feature", "geometry": {"type": "Point", "coordinates": [10.57892, 49.07856]}, "properties": {"name": "Lentersheim", "kind": "Ort", "n": 1, "gazId": "", "src": "OSM"}}, {"type": "Feature", "geometry": {"type": "Point", "coordinates": [9.01667, 48.8]}, "properties": {"name": "Leonberg", "kind": "Ort", "n": 1, "gazId": "2045144", "src": "iDAI"}}, {"type": "Feature", "geometry": {"type": "Point", "coordinates": [15.45662, 47.06809]}, "properties": {"name": "Leonhard", "kind": "Flur", "n": 1, "gazId": "2786322", "src": "iDAI"}}, {"type": "Feature", "geometry": {"type": "Point", "coordinates": [8.099, 50.54599]}, "properties": {"name": "Lieh", "kind": "Ort", "n": 2, "gazId": "", "src": "OSM"}}, {"type": "Feature", "geometry": {"type": "Point", "coordinates": [10.6329, 49.85259]}, "properties": {"name": "Lindach", "kind": "Ort", "n": 1, "gazId": "", "src": "OSM"}}, {"type": "Feature", "geometry": {"type": "Point", "coordinates": [9.60385, 48.98081]}, "properties": {"name": "Linderst", "kind": "Berg", "n": 3, "gazId": "", "src": "OSM"}}, {"type": "Feature", "geometry": {"type": "Point", "coordinates": [7.50486, 50.86755]}, "properties": {"name": "Lindscheid", "kind": "Ort", "n": 1, "gazId": "", "src": "OSM"}}, {"type": "Feature", "geometry": {"type": "Point", "coordinates": [10.90872, 48.29795]}, "properties": {"name": "Lochbach", "kind": "Fluss", "n": 1, "gazId": "", "src": "OSM"}}, {"type": "Feature", "geometry": {"type": "Point", "coordinates": [9.7373, 47.6677]}, "properties": {"name": "Lochmühle", "kind": "Ort", "n": 4, "gazId": "", "src": "OSM"}}, {"type": "Feature", "geometry": {"type": "Point", "coordinates": [9.7373, 47.6677]}, "properties": {"name": "Lochmühle (Zwischenkastell)", "kind": "Kastell", "n": 1, "gazId": "", "src": "OSM"}}, {"type": "Feature", "geometry": {"type": "Point", "coordinates": [7.86889, 50.25603]}, "properties": {"name": "Lollschied", "kind": "Ort", "n": 3, "gazId": "", "src": "OSM"}}, {"type": "Feature", "geometry": {"type": "Point", "coordinates": [9.69298, 48.79769]}, "properties": {"name": "Lorch", "kind": "Ort", "n": 14, "gazId": "2045962", "src": "iDAI"}}, {"type": "Feature", "geometry": {"type": "Point", "coordinates": [8.69124, 50.10545]}, "properties": {"name": "Lorsbacher Thal", "kind": "Flur/Tal", "n": 1, "gazId": "", "src": "OSM"}}, {"type": "Feature", "geometry": {"type": "Point", "coordinates": [9.19161, 48.89731]}, "properties": {"name": "Ludwigsburg", "kind": "Ort", "n": 1, "gazId": "2045748", "src": "iDAI"}}, {"type": "Feature", "geometry": {"type": "Point", "coordinates": [7.79069, 49.73708]}, "properties": {"name": "Löwenstein", "kind": "Region", "n": 1, "gazId": "2052318", "src": "iDAI"}}, {"type": "Feature", "geometry": {"type": "Point", "coordinates": [9.5663, 49.88905]}, "properties": {"name": "Löwensteinscher Park", "kind": "Ort", "n": 1, "gazId": "", "src": "OSM"}}, {"type": "Feature", "geometry": {"type": "Point", "coordinates": [8.76687, 49.74233]}, "properties": {"name": "Lützelbach", "kind": "Ort", "n": 3, "gazId": "2109869", "src": "iDAI"}}, {"type": "Feature", "geometry": {"type": "Point", "coordinates": [8.43417, 50.10972]}, "properties": {"name": "Main", "kind": "Fluss", "n": 36, "gazId": "2049360", "src": "iDAI"}}, {"type": "Feature", "geometry": {"type": "Point", "coordinates": [8.43417, 50.10972]}, "properties": {"name": "Main (Mainthal)", "kind": "Fluss", "n": 4, "gazId": "2049360", "src": "iDAI"}}, {"type": "Feature", "geometry": {"type": "Point", "coordinates": [9.55639, 49.07611]}, "properties": {"name": "Mainhardt", "kind": "Ort", "n": 5, "gazId": "2046184", "src": "iDAI"}}, {"type": "Feature", "geometry": {"type": "Point", "coordinates": [8.25361, 49.99167]}, "properties": {"name": "Mainz", "kind": "Ort", "n": 19, "gazId": "2052433", "src": "iDAI"}}, {"type": "Feature", "geometry": {"type": "Point", "coordinates": [8.22137, 50.17649]}, "properties": {"name": "Maisel", "kind": "Berg", "n": 2, "gazId": "", "src": "OSM"}}, {"type": "Feature", "geometry": {"type": "Point", "coordinates": [8.47955, 49.49671]}, "properties": {"name": "Mannheim", "kind": "Ort", "n": 3, "gazId": "2045837", "src": "iDAI"}}, {"type": "Feature", "geometry": {"type": "Point", "coordinates": [7.81339, 50.24031]}, "properties": {"name": "Marienfels", "kind": "Ort", "n": 5, "gazId": "2052055", "src": "iDAI"}}, {"type": "Feature", "geometry": {"type": "Point", "coordinates": [10.2735, 49.28435]}, "properties": {"name": "Marienhof", "kind": "Ort", "n": 7, "gazId": "", "src": "OSM"}}, {"type": "Feature", "geometry": {"type": "Point", "coordinates": [8.99085, 50.22118]}, "properties": {"name": "Marköbel", "kind": "Kastell", "n": 23, "gazId": "2180526", "src": "iDAI"}}, {"type": "Feature", "geometry": {"type": "Point", "coordinates": [10.94676, 48.74176]}, "properties": {"name": "Marxheim", "kind": "Ort", "n": 2, "gazId": "2047132", "src": "iDAI"}}, {"type": "Feature", "geometry": {"type": "Point", "coordinates": [9.51509, 49.22339]}, "properties": {"name": "Massholderbach", "kind": "Ort", "n": 3, "gazId": "", "src": "OSM"}}, {"type": "Feature", "geometry": {"type": "Point", "coordinates": [7.47874, 50.48782]}, "properties": {"name": "Melsbach", "kind": "Ort", "n": 2, "gazId": "2052541", "src": "iDAI"}}, {"type": "Feature", "geometry": {"type": "Point", "coordinates": [9.24076, 50.96436]}, "properties": {"name": "Michelsberg", "kind": "Berg", "n": 1, "gazId": "2049081", "src": "iDAI"}}, {"type": "Feature", "geometry": {"type": "Point", "coordinates": [7.83038, 50.22631]}, "properties": {"name": "Miehlen", "kind": "Ort", "n": 4, "gazId": "", "src": "OSM"}}, {"type": "Feature", "geometry": {"type": "Point", "coordinates": [9.22861, 49.77417]}, "properties": {"name": "Miltenberg", "kind": "Ort", "n": 23, "gazId": "2046433", "src": "iDAI"}}, {"type": "Feature", "geometry": {"type": "Point", "coordinates": [10.90253, 49.10207]}, "properties": {"name": "Mistelberg", "kind": "Berg", "n": 1, "gazId": "", "src": "OSM"}}, {"type": "Feature", "geometry": {"type": "Point", "coordinates": [8.88849, 50.17762]}, "properties": {"name": "Mittelbuchen", "kind": "Ort", "n": 1, "gazId": "2049344", "src": "iDAI"}}, {"type": "Feature", "geometry": {"type": "Point", "coordinates": [10.69023, 49.32327]}, "properties": {"name": "Mittelfranken", "kind": "Region", "n": 1, "gazId": "", "src": "OSM"}}, {"type": "Feature", "geometry": {"type": "Point", "coordinates": [9.96208, 48.82335]}, "properties": {"name": "Moegglingen", "kind": "Ort", "n": 1, "gazId": "", "src": "OSM"}}, {"type": "Feature", "geometry": {"type": "Point", "coordinates": [7.83025, 50.43622]}, "properties": {"name": "Montabaur", "kind": "Ort", "n": 1, "gazId": "", "src": "OSM"}}, {"type": "Feature", "geometry": {"type": "Point", "coordinates": [9.18969, 49.52939]}, "properties": {"name": "Mudbach", "kind": "Fluss", "n": 4, "gazId": "", "src": "OSM"}}, {"type": "Feature", "geometry": {"type": "Point", "coordinates": [9.27575, 48.96742]}, "properties": {"name": "Murr", "kind": "Fluss", "n": 1, "gazId": "2045801", "src": "iDAI"}}, {"type": "Feature", "geometry": {"type": "Point", "coordinates": [9.57047, 48.98191]}, "properties": {"name": "Murrhardt", "kind": "Ort", "n": 8, "gazId": "2046036", "src": "iDAI"}}, {"type": "Feature", "geometry": {"type": "Point", "coordinates": [9.9625, 48.8232]}, "properties": {"name": "Mögglingen", "kind": "Ort", "n": 1, "gazId": "2045963", "src": "iDAI"}}, {"type": "Feature", "geometry": {"type": "Point", "coordinates": [10.76446, 49.19529]}, "properties": {"name": "Mönchsberg", "kind": "Ort", "n": 1, "gazId": "", "src": "OSM"}}, {"type": "Feature", "geometry": {"type": "Point", "coordinates": [10.35856, 49.01851]}, "properties": {"name": "Mönchsroth", "kind": "Ort", "n": 11, "gazId": "2046770", "src": "iDAI"}}, {"type": "Feature", "geometry": {"type": "Point", "coordinates": [7.83672, 48.46947]}, "properties": {"name": "Müllen", "kind": "Ort", "n": 1, "gazId": "", "src": "OSM"}}, {"type": "Feature", "geometry": {"type": "Point", "coordinates": [8.99738, 49.7505]}, "properties": {"name": "Mümling", "kind": "Fluss", "n": 3, "gazId": "", "src": "OSM"}}, {"type": "Feature", "geometry": {"type": "Point", "coordinates": [11.58023, 48.15048]}, "properties": {"name": "München", "kind": "Ort", "n": 9, "gazId": "2767107", "src": "iDAI"}}, {"type": "Feature", "geometry": {"type": "Point", "coordinates": [8.45999, 50.09895]}, "properties": {"name": "Münster am Taunus", "kind": "Ort", "n": 1, "gazId": "", "src": "OSM"}}, {"type": "Feature", "geometry": {"type": "Point", "coordinates": [8.67403, 50.242]}, "properties": {"name": "Nadelmühle", "kind": "Ort/Mühle", "n": 1, "gazId": "", "src": "OSM"}}, {"type": "Feature", "geometry": {"type": "Point", "coordinates": [7.86626, 50.25018]}, "properties": {"name": "Nassau", "kind": "Region", "n": 2, "gazId": "2052022", "src": "iDAI"}}, {"type": "Feature", "geometry": {"type": "Point", "coordinates": [11.22586, 48.79948]}, "properties": {"name": "Nassenfels", "kind": "Ort", "n": 3, "gazId": "2109445", "src": "iDAI"}}, {"type": "Feature", "geometry": {"type": "Point", "coordinates": [7.85818, 50.19908]}, "properties": {"name": "Nastätten", "kind": "Ort", "n": 2, "gazId": "", "src": "OSM"}}, {"type": "Feature", "geometry": {"type": "Point", "coordinates": [8.74482, 50.39955]}, "properties": {"name": "Nauheim", "kind": "Ort", "n": 1, "gazId": "2111494", "src": "iDAI"}}, {"type": "Feature", "geometry": {"type": "Point", "coordinates": [11.80979, 51.14987]}, "properties": {"name": "Naumburg", "kind": "Ort/Flur", "n": 3, "gazId": "2116137", "src": "iDAI"}}, {"type": "Feature", "geometry": {"type": "Point", "coordinates": [9.30473, 48.73961]}, "properties": {"name": "Neckar", "kind": "Fluss", "n": 19, "gazId": "2045583", "src": "iDAI"}}, {"type": "Feature", "geometry": {"type": "Point", "coordinates": [9.16906, 49.37817]}, "properties": {"name": "Neckarburken", "kind": "Ort", "n": 9, "gazId": "2045859", "src": "iDAI"}}, {"type": "Feature", "geometry": {"type": "Point", "coordinates": [9.13372, 49.28297]}, "properties": {"name": "Neckarmühlbach", "kind": "Ort", "n": 1, "gazId": "", "src": "OSM"}}, {"type": "Feature", "geometry": {"type": "Point", "coordinates": [9.22528, 49.18912]}, "properties": {"name": "Neckarsulm", "kind": "Ort", "n": 1, "gazId": "2045679", "src": "iDAI"}}, {"type": "Feature", "geometry": {"type": "Point", "coordinates": [8.6866, 49.41525]}, "properties": {"name": "Neuenheim", "kind": "Kastell", "n": 2, "gazId": "2122820", "src": "iDAI"}}, {"type": "Feature", "geometry": {"type": "Point", "coordinates": [9.58502, 50.90043]}, "properties": {"name": "Neuenstein", "kind": "Ort", "n": 2, "gazId": "2049231", "src": "iDAI"}}, {"type": "Feature", "geometry": {"type": "Point", "coordinates": [9.51828, 51.75236]}, "properties": {"name": "Neuhaus", "kind": "Ort/Flur", "n": 1, "gazId": "2050759", "src": "iDAI"}}, {"type": "Feature", "geometry": {"type": "Point", "coordinates": [14.4143, 51.68059]}, "properties": {"name": "Neuhausen", "kind": "Ort", "n": 1, "gazId": "2048939", "src": "iDAI"}}, {"type": "Feature", "geometry": {"type": "Point", "coordinates": [10.79889, 48.38731]}, "properties": {"name": "Neusäss", "kind": "Ort", "n": 4, "gazId": "2046795", "src": "iDAI"}}, {"type": "Feature", "geometry": {"type": "Point", "coordinates": [10.79889, 48.38731]}, "properties": {"name": "Neusäß", "kind": "Ort", "n": 1, "gazId": "2046795", "src": "iDAI"}}, {"type": "Feature", "geometry": {"type": "Point", "coordinates": [7.46288, 50.42962]}, "properties": {"name": "Neuwied", "kind": "Ort", "n": 2, "gazId": "2052543", "src": "iDAI"}}, {"type": "Feature", "geometry": {"type": "Point", "coordinates": [11.42088, 50.02296]}, "properties": {"name": "Neuwirthshaus", "kind": "Ort", "n": 1, "gazId": "", "src": "OSM"}}, {"type": "Feature", "geometry": {"type": "Point", "coordinates": [8.96885, 50.40488]}, "properties": {"name": "Nidda", "kind": "Fluss", "n": 13, "gazId": "2049563", "src": "iDAI"}}, {"type": "Feature", "geometry": {"type": "Point", "coordinates": [8.77675, 50.196]}, "properties": {"name": "Nidder", "kind": "Fluss", "n": 10, "gazId": "2049117", "src": "iDAI"}}, {"type": "Feature", "geometry": {"type": "Point", "coordinates": [8.58281, 50.09978]}, "properties": {"name": "Nied", "kind": "Ort", "n": 7, "gazId": "2181140", "src": "iDAI"}}, {"type": "Feature", "geometry": {"type": "Point", "coordinates": [7.62438, 50.37009]}, "properties": {"name": "Niederberg", "kind": "Kastell", "n": 1, "gazId": "2052364", "src": "iDAI"}}, {"type": "Feature", "geometry": {"type": "Point", "coordinates": [7.47289, 50.46197]}, "properties": {"name": "Niederbieber", "kind": "Kastell", "n": 18, "gazId": "2052516", "src": "iDAI"}}, {"type": "Feature", "geometry": {"type": "Point", "coordinates": [8.80069, 50.19344]}, "properties": {"name": "Niederdorfelden", "kind": "Ort", "n": 4, "gazId": "2049358", "src": "iDAI"}}, {"type": "Feature", "geometry": {"type": "Point", "coordinates": [8.47903, 50.1244]}, "properties": {"name": "Niederhofheim", "kind": "Ort", "n": 1, "gazId": "", "src": "OSM"}}, {"type": "Feature", "geometry": {"type": "Point", "coordinates": [7.32724, 50.40849]}, "properties": {"name": "Niedermendiger", "kind": "Ort", "n": 1, "gazId": "", "src": "OSM"}}, {"type": "Feature", "geometry": {"type": "Point", "coordinates": [9.13449, 49.91484]}, "properties": {"name": "Niedernberg", "kind": "Ort", "n": 1, "gazId": "2046444", "src": "iDAI"}}, {"type": "Feature", "geometry": {"type": "Point", "coordinates": [8.29308, 50.17324]}, "properties": {"name": "Niedernhausen", "kind": "Ort", "n": 3, "gazId": "", "src": "OSM"}}, {"type": "Feature", "geometry": {"type": "Point", "coordinates": [8.61888, 50.16906]}, "properties": {"name": "Niederursel", "kind": "Ort", "n": 2, "gazId": "", "src": "OSM"}}, {"type": "Feature", "geometry": {"type": "Point", "coordinates": [8.87843, 50.82826]}, "properties": {"name": "Niederwald", "kind": "Wald", "n": 1, "gazId": "2180557", "src": "iDAI"}}, {"type": "Feature", "geometry": {"type": "Point", "coordinates": [10.48951, 48.85081]}, "properties": {"name": "Nördlingen", "kind": "Ort", "n": 3, "gazId": "2106007", "src": "iDAI"}}, {"type": "Feature", "geometry": {"type": "Point", "coordinates": [11.07752, 49.45421]}, "properties": {"name": "Nürnberg", "kind": "Ort", "n": 1, "gazId": "2047786", "src": "iDAI"}}, {"type": "Feature", "geometry": {"type": "Point", "coordinates": [8.87174, 50.32407]}, "properties": {"name": "Ober-Florstadt", "kind": "Ort", "n": 2, "gazId": "2180688", "src": "iDAI"}}, {"type": "Feature", "geometry": {"type": "Point", "coordinates": [8.43039, 50.24628]}, "properties": {"name": "Ober-Reifenberg", "kind": "Ort", "n": 1, "gazId": "", "src": "OSM"}}, {"type": "Feature", "geometry": {"type": "Point", "coordinates": [7.50158, 50.47371]}, "properties": {"name": "Oberbieber", "kind": "Ort", "n": 3, "gazId": "", "src": "OSM"}}, {"type": "Feature", "geometry": {"type": "Point", "coordinates": [8.82343, 50.19571]}, "properties": {"name": "Oberdorfelden", "kind": "Ort", "n": 1, "gazId": "", "src": "OSM"}}, {"type": "Feature", "geometry": {"type": "Point", "coordinates": [7.1975, 50.95831]}, "properties": {"name": "Obereschbach", "kind": "Ort", "n": 1, "gazId": "", "src": "OSM"}}, {"type": "Feature", "geometry": {"type": "Point", "coordinates": [8.75198, 50.33386]}, "properties": {"name": "Oberhessen", "kind": "Region", "n": 1, "gazId": "", "src": "OSM"}}, {"type": "Feature", "geometry": {"type": "Point", "coordinates": [11.66704, 48.98193]}, "properties": {"name": "Oberhofen", "kind": "Ort", "n": 1, "gazId": "2047436", "src": "iDAI"}}, {"type": "Feature", "geometry": {"type": "Point", "coordinates": [8.54072, 50.18299]}, "properties": {"name": "Oberhöchstadt", "kind": "Ort", "n": 1, "gazId": "", "src": "OSM"}}, {"type": "Feature", "geometry": {"type": "Point", "coordinates": [7.61008, 50.30117]}, "properties": {"name": "Oberlahnstein", "kind": "Ort", "n": 1, "gazId": "", "src": "OSM"}}, {"type": "Feature", "geometry": {"type": "Point", "coordinates": [9.51293, 49.22828]}, "properties": {"name": "Obermassholderbach", "kind": "Ort", "n": 1, "gazId": "", "src": "OSM"}}, {"type": "Feature", "geometry": {"type": "Point", "coordinates": [9.13101, 49.83577]}, "properties": {"name": "Obernburg", "kind": "Ort", "n": 3, "gazId": "2046445", "src": "iDAI"}}, {"type": "Feature", "geometry": {"type": "Point", "coordinates": [9.26457, 49.50226]}, "properties": {"name": "Oberneudorf", "kind": "Ort", "n": 1, "gazId": "", "src": "OSM"}}, {"type": "Feature", "geometry": {"type": "Point", "coordinates": [8.54361, 50.2791]}, "properties": {"name": "Obernhain", "kind": "Ort", "n": 1, "gazId": "", "src": "OSM"}}, {"type": "Feature", "geometry": {"type": "Point", "coordinates": [9.53025, 49.17996]}, "properties": {"name": "Oberohrn", "kind": "Ort", "n": 1, "gazId": "", "src": "OSM"}}, {"type": "Feature", "geometry": {"type": "Point", "coordinates": [8.40248, 49.80138]}, "properties": {"name": "Oberrhein", "kind": "Fluss", "n": 1, "gazId": "2049119", "src": "iDAI"}}, {"type": "Feature", "geometry": {"type": "Point", "coordinates": [9.29106, 49.41835]}, "properties": {"name": "Oberschefflenz", "kind": "Ort", "n": 1, "gazId": "", "src": "OSM"}}, {"type": "Feature", "geometry": {"type": "Point", "coordinates": [7.88988, 50.24268]}, "properties": {"name": "Obertiefenbach", "kind": "Ort", "n": 3, "gazId": "", "src": "OSM"}}, {"type": "Feature", "geometry": {"type": "Point", "coordinates": [8.58041, 50.20058]}, "properties": {"name": "Oberursel", "kind": "Ort", "n": 2, "gazId": "2287251", "src": "iDAI"}}, {"type": "Feature", "geometry": {"type": "Point", "coordinates": [8.72161, 50.33252]}, "properties": {"name": "Ockstadt", "kind": "Ort", "n": 1, "gazId": "2049536", "src": "iDAI"}}, {"type": "Feature", "geometry": {"type": "Point", "coordinates": [8.68358, 49.72972]}, "properties": {"name": "Odenwald", "kind": "Region", "n": 15, "gazId": "2049018", "src": "iDAI"}}, {"type": "Feature", "geometry": {"type": "Point", "coordinates": [9.50244, 49.2005]}, "properties": {"name": "Oehringen", "kind": "Ort", "n": 17, "gazId": "", "src": "OSM"}}, {"type": "Feature", "geometry": {"type": "Point", "coordinates": [7.94495, 48.47377]}, "properties": {"name": "Offenburg", "kind": "Ort", "n": 1, "gazId": "2426205", "src": "iDAI"}}, {"type": "Feature", "geometry": {"type": "Point", "coordinates": [9.53254, 49.1719]}, "properties": {"name": "Ohrn", "kind": "Fluss", "n": 5, "gazId": "", "src": "OSM"}}, {"type": "Feature", "geometry": {"type": "Point", "coordinates": [8.7561, 50.25162]}, "properties": {"name": "Okarben", "kind": "Ort", "n": 16, "gazId": "2049569", "src": "iDAI"}}, {"type": "Feature", "geometry": {"type": "Point", "coordinates": [8.1868, 50.18163]}, "properties": {"name": "Orlen", "kind": "Ort", "n": 1, "gazId": "2108818", "src": "iDAI"}}, {"type": "Feature", "geometry": {"type": "Point", "coordinates": [8.95909, 47.84272]}, "properties": {"name": "Orsingen", "kind": "Ort", "n": 1, "gazId": "2045736", "src": "iDAI"}}, {"type": "Feature", "geometry": {"type": "Point", "coordinates": [9.42252, 49.42998]}, "properties": {"name": "Osterburken", "kind": "Kastell", "n": 27, "gazId": "2045848", "src": "iDAI"}}, {"type": "Feature", "geometry": {"type": "Point", "coordinates": [7.73686, 49.4859]}, "properties": {"name": "Otterbach", "kind": "Fluss", "n": 1, "gazId": "", "src": "OSM"}}, {"type": "Feature", "geometry": {"type": "Point", "coordinates": [8.90344, 48.8144]}, "properties": {"name": "Perouse", "kind": "Ort", "n": 1, "gazId": "", "src": "OSM"}}, {"type": "Feature", "geometry": {"type": "Point", "coordinates": [11.18796, 48.9772]}, "properties": {"name": "Petersbuch", "kind": "Ort", "n": 5, "gazId": "2109385", "src": "iDAI"}}, {"type": "Feature", "geometry": {"type": "Point", "coordinates": [8.71786, 50.24245]}, "properties": {"name": "Petterweil", "kind": "Ort", "n": 1, "gazId": "", "src": "OSM"}}, {"type": "Feature", "geometry": {"type": "Point", "coordinates": [9.64091, 48.87036]}, "properties": {"name": "Pfaffenader", "kind": "Fluss", "n": 1, "gazId": "", "src": "OSM"}}, {"type": "Feature", "geometry": {"type": "Point", "coordinates": [9.49712, 49.2521]}, "properties": {"name": "Pfahlbach", "kind": "Ort", "n": 6, "gazId": "", "src": "OSM"}}, {"type": "Feature", "geometry": {"type": "Point", "coordinates": [11.33137, 48.96012]}, "properties": {"name": "Pfahldorf", "kind": "Ort", "n": 3, "gazId": "2047159", "src": "iDAI"}}, {"type": "Feature", "geometry": {"type": "Point", "coordinates": [10.83437, 49.10508]}, "properties": {"name": "Pfofeld", "kind": "Ort", "n": 1, "gazId": "", "src": "OSM"}}, {"type": "Feature", "geometry": {"type": "Point", "coordinates": [9.37448, 49.67116]}, "properties": {"name": "Pfohlbach", "kind": "Fluss", "n": 1, "gazId": "", "src": "OSM"}}, {"type": "Feature", "geometry": {"type": "Point", "coordinates": [8.69892, 48.88436]}, "properties": {"name": "Pforzheim", "kind": "Ort", "n": 4, "gazId": "2045253", "src": "iDAI"}}, {"type": "Feature", "geometry": {"type": "Point", "coordinates": [11.83434, 49.05621]}, "properties": {"name": "Pföring", "kind": "Kastell", "n": 3, "gazId": "", "src": "OSM"}}, {"type": "Feature", "geometry": {"type": "Point", "coordinates": [11.69012, 48.80824]}, "properties": {"name": "Pförring", "kind": "Ort", "n": 1, "gazId": "2047185", "src": "iDAI"}}, {"type": "Feature", "geometry": {"type": "Point", "coordinates": [11.26714, 48.88743]}, "properties": {"name": "Pfünz", "kind": "Kastell", "n": 15, "gazId": "2047186", "src": "iDAI"}}, {"type": "Feature", "geometry": {"type": "Point", "coordinates": [8.61706, 50.39164]}, "properties": {"name": "Philippseck", "kind": "Ort", "n": 1, "gazId": "", "src": "OSM"}}, {"type": "Feature", "geometry": {"type": "Point", "coordinates": [10.98194, 49.10473]}, "properties": {"name": "Pleinfeld", "kind": "Ort", "n": 3, "gazId": "2048357", "src": "iDAI"}}, {"type": "Feature", "geometry": {"type": "Point", "coordinates": [7.86626, 50.25018]}, "properties": {"name": "Pohl", "kind": "Ort", "n": 9, "gazId": "2052022", "src": "iDAI"}}, {"type": "Feature", "geometry": {"type": "Point", "coordinates": [8.07968, 50.16617]}, "properties": {"name": "Pohlbach", "kind": "Fluss", "n": 1, "gazId": "", "src": "OSM"}}, {"type": "Feature", "geometry": {"type": "Point", "coordinates": [11.4007, 50.52513]}, "properties": {"name": "Pohlberg", "kind": "Berg", "n": 2, "gazId": "", "src": "OSM"}}, {"type": "Feature", "geometry": {"type": "Point", "coordinates": [14.48616, 40.75164]}, "properties": {"name": "Pompeji", "kind": "Ort", "n": 1, "gazId": "2338718", "src": "iDAI"}}, {"type": "Feature", "geometry": {"type": "Point", "coordinates": [8.61883, 50.14931]}, "properties": {"name": "Praunheim", "kind": "Ort", "n": 4, "gazId": "2123614", "src": "iDAI"}}, {"type": "Feature", "geometry": {"type": "Point", "coordinates": [11.20082, 48.91944]}, "properties": {"name": "Preith", "kind": "Ort", "n": 1, "gazId": "", "src": "OSM"}}, {"type": "Feature", "geometry": {"type": "Point", "coordinates": [8.69482, 50.15485]}, "properties": {"name": "Preungesheim", "kind": "Ort", "n": 1, "gazId": "2181153", "src": "iDAI"}}, {"type": "Feature", "geometry": {"type": "Point", "coordinates": [8.13843, 49.27779]}, "properties": {"name": "Preussenschanze", "kind": "Ort", "n": 1, "gazId": "", "src": "OSM"}}, {"type": "Feature", "geometry": {"type": "Point", "coordinates": [8.95898, 49.87227]}, "properties": {"name": "Raibach", "kind": "Ort", "n": 1, "gazId": "", "src": "OSM"}}, {"type": "Feature", "geometry": {"type": "Point", "coordinates": [11.12486, 49.01468]}, "properties": {"name": "Raitenbuch", "kind": "Ort", "n": 4, "gazId": "2048360", "src": "iDAI"}}, {"type": "Feature", "geometry": {"type": "Point", "coordinates": [7.84201, 50.10188]}, "properties": {"name": "Ransel", "kind": "Ort", "n": 1, "gazId": "", "src": "OSM"}}, {"type": "Feature", "geometry": {"type": "Point", "coordinates": [8.20964, 48.85851]}, "properties": {"name": "Rastatt", "kind": "Ort", "n": 1, "gazId": "2045996", "src": "iDAI"}}, {"type": "Feature", "geometry": {"type": "Point", "coordinates": [12.11923, 49.03451]}, "properties": {"name": "Regensburg", "kind": "Ort", "n": 2, "gazId": "2047884", "src": "iDAI"}}, {"type": "Feature", "geometry": {"type": "Point", "coordinates": [8.94346, 49.35765]}, "properties": {"name": "Reichartshausen", "kind": "Ort", "n": 7, "gazId": "", "src": "OSM"}}, {"type": "Feature", "geometry": {"type": "Point", "coordinates": [12.35, 49.18333]}, "properties": {"name": "Reichenbach", "kind": "Ort", "n": 1, "gazId": "2046940", "src": "iDAI"}}, {"type": "Feature", "geometry": {"type": "Point", "coordinates": [7.51032, 49.28202]}, "properties": {"name": "Reifenberg", "kind": "Ort", "n": 1, "gazId": "", "src": "OSM"}}, {"type": "Feature", "geometry": {"type": "Point", "coordinates": [9.34402, 49.64184]}, "properties": {"name": "Reinhardsachsen", "kind": "Ort", "n": 4, "gazId": "2045849", "src": "iDAI"}}, {"type": "Feature", "geometry": {"type": "Point", "coordinates": [7.78397, 50.15505]}, "properties": {"name": "Reitzenhain", "kind": "Ort", "n": 1, "gazId": "", "src": "OSM"}}, {"type": "Feature", "geometry": {"type": "Point", "coordinates": [9.53056, 48.90889]}, "properties": {"name": "Rems", "kind": "Fluss", "n": 6, "gazId": "2046021", "src": "iDAI"}}, {"type": "Feature", "geometry": {"type": "Point", "coordinates": [9.49083, 49.53323]}, "properties": {"name": "Remstal", "kind": "Region", "n": 1, "gazId": "", "src": "OSM"}}, {"type": "Feature", "geometry": {"type": "Point", "coordinates": [8.79189, 50.21429]}, "properties": {"name": "Rendel", "kind": "Ort", "n": 4, "gazId": "2049570", "src": "iDAI"}}, {"type": "Feature", "geometry": {"type": "Point", "coordinates": [9.51415, 49.19969]}, "properties": {"name": "Rendelkastell", "kind": "Kastell", "n": 4, "gazId": "", "src": "OSM"}}, {"type": "Feature", "geometry": {"type": "Point", "coordinates": [11.15668, 49.00571]}, "properties": {"name": "Reuth am Wald", "kind": "Ort", "n": 1, "gazId": "", "src": "OSM"}}, {"type": "Feature", "geometry": {"type": "Point", "coordinates": [10.72043, 49.27418]}, "properties": {"name": "Rezat", "kind": "Fluss", "n": 2, "gazId": "", "src": "OSM"}}, {"type": "Feature", "geometry": {"type": "Point", "coordinates": [7.93953, 49.96619]}, "properties": {"name": "Rhein", "kind": "Fluss", "n": 17, "gazId": "2052441", "src": "iDAI"}}, {"type": "Feature", "geometry": {"type": "Point", "coordinates": [7.89322, 48.6234]}, "properties": {"name": "Rheinau", "kind": "Ort/Flur", "n": 2, "gazId": "2045883", "src": "iDAI"}}, {"type": "Feature", "geometry": {"type": "Point", "coordinates": [7.33317, 50.51084]}, "properties": {"name": "Rheinbrohl", "kind": "Ort", "n": 1, "gazId": "2052517", "src": "iDAI"}}, {"type": "Feature", "geometry": {"type": "Point", "coordinates": [8.53755, 47.87029]}, "properties": {"name": "Riedböhringen", "kind": "Ort", "n": 1, "gazId": "", "src": "OSM"}}, {"type": "Feature", "geometry": {"type": "Point", "coordinates": [9.39339, 49.51372]}, "properties": {"name": "Rinschheim", "kind": "Ort", "n": 4, "gazId": "2045842", "src": "iDAI"}}, {"type": "Feature", "geometry": {"type": "Point", "coordinates": [10.86761, 49.09998]}, "properties": {"name": "Rittern", "kind": "Ort", "n": 1, "gazId": "", "src": "OSM"}}, {"type": "Feature", "geometry": {"type": "Point", "coordinates": [9.1623, 49.45229]}, "properties": {"name": "Robern", "kind": "Ort", "n": 2, "gazId": "", "src": "OSM"}}, {"type": "Feature", "geometry": {"type": "Point", "coordinates": [8.61255, 50.12498]}, "properties": {"name": "Rodelheim", "kind": "Ort", "n": 1, "gazId": "", "src": "OSM"}}, {"type": "Feature", "geometry": {"type": "Point", "coordinates": [8.94579, 50.44995]}, "properties": {"name": "Rodheim", "kind": "Ort", "n": 1, "gazId": "", "src": "OSM"}}, {"type": "Feature", "geometry": {"type": "Point", "coordinates": [9.34109, 49.36354]}, "properties": {"name": "Roigheim", "kind": "Ort", "n": 1, "gazId": "", "src": "OSM"}}, {"type": "Feature", "geometry": {"type": "Point", "coordinates": [8.69072, 50.30442]}, "properties": {"name": "Rosbach", "kind": "Ort", "n": 1, "gazId": "2049584", "src": "iDAI"}}, {"type": "Feature", "geometry": {"type": "Point", "coordinates": [7.90254, 48.0102]}, "properties": {"name": "Rosskopf", "kind": "Berg", "n": 7, "gazId": "", "src": "OSM"}}, {"type": "Feature", "geometry": {"type": "Point", "coordinates": [9.52607, 49.31978]}, "properties": {"name": "Rotes Kreuz", "kind": "Ort", "n": 1, "gazId": "", "src": "OSM"}}, {"type": "Feature", "geometry": {"type": "Point", "coordinates": [9.68168, 50.62745]}, "properties": {"name": "Rotkopf", "kind": "Berg", "n": 1, "gazId": "", "src": "OSM"}}, {"type": "Feature", "geometry": {"type": "Point", "coordinates": [8.93528, 48.47629]}, "properties": {"name": "Rottenburg am Neckar", "kind": "Ort", "n": 1, "gazId": "2046272", "src": "iDAI"}}, {"type": "Feature", "geometry": {"type": "Point", "coordinates": [8.62719, 48.16783]}, "properties": {"name": "Rottweil", "kind": "Ort", "n": 3, "gazId": "2046155", "src": "iDAI"}}, {"type": "Feature", "geometry": {"type": "Point", "coordinates": [10.46994, 49.0496]}, "properties": {"name": "Ruffenhofen", "kind": "Ort", "n": 2, "gazId": "2046752", "src": "iDAI"}}, {"type": "Feature", "geometry": {"type": "Point", "coordinates": [10.55981, 49.05627]}, "properties": {"name": "Röckingen", "kind": "Ort", "n": 1, "gazId": "", "src": "OSM"}}, {"type": "Feature", "geometry": {"type": "Point", "coordinates": [8.59967, 50.12795]}, "properties": {"name": "Rödelheim", "kind": "Ort", "n": 2, "gazId": "2181152", "src": "iDAI"}}, {"type": "Feature", "geometry": {"type": "Point", "coordinates": [9.95848, 47.62919]}, "properties": {"name": "Röthenbach", "kind": "Fluss", "n": 3, "gazId": "", "src": "OSM"}}, {"type": "Feature", "geometry": {"type": "Point", "coordinates": [8.98867, 50.15791]}, "properties": {"name": "Rückingen", "kind": "Kastell", "n": 14, "gazId": "2180532", "src": "iDAI"}}, {"type": "Feature", "geometry": {"type": "Point", "coordinates": [11.73189, 50.50244]}, "properties": {"name": "Saalburg", "kind": "Kastell", "n": 38, "gazId": "2053128", "src": "iDAI"}}, {"type": "Feature", "geometry": {"type": "Point", "coordinates": [28.93917, 41.03111]}, "properties": {"name": "Salvator", "kind": "Ort", "n": 1, "gazId": "2107332", "src": "iDAI"}}, {"type": "Feature", "geometry": {"type": "Point", "coordinates": [10.14729, 48.52877]}, "properties": {"name": "Sandberg", "kind": "Flur", "n": 1, "gazId": "2045401", "src": "iDAI"}}, {"type": "Feature", "geometry": {"type": "Point", "coordinates": [9.13016, 50.13548]}, "properties": {"name": "Sandelmühle", "kind": "Ort", "n": 1, "gazId": "", "src": "OSM"}}, {"type": "Feature", "geometry": {"type": "Point", "coordinates": [9.17, 49.40975]}, "properties": {"name": "Sattelbach", "kind": "Ort", "n": 1, "gazId": "", "src": "OSM"}},